[{"pincode":"495116","office":"Belgahana SO","district":"BILASPUR","state":"CHHATTISGARH","lat":22.4292787,"lon":82.0352647,"fullAddress":"Belgahana SO, BILASPUR, CHHATTISGARH, 495116","country":"IN","stateCode":"CG"},{"pincode":"491335","office":"Khandsara BO","district":"BEMETARA","state":"CHHATTISGARH","lat":21.811119,"lon":81.510266,"fullAddress":"Khandsara BO, BEMETARA, CHHATTISGARH, 491335","country":"IN","stateCode":"CG"},{"pincode":"494665","office":"Kaleparas BO","district":"KANKER","state":"CHHATTISGARH","lat":20.0519,"lon":80.21564,"fullAddress":"Kaleparas BO, KANKER, CHHATTISGARH, 494665","country":"IN","stateCode":"CG"},{"pincode":"496242","office":"Khutgaon BO","district":"JASHPUR","state":"CHHATTISGARH","lat":22.549221,"lon":83.902951,"fullAddress":"Khutgaon BO, JASHPUR, CHHATTISGARH, 496242","country":"IN","stateCode":"CG"},{"pincode":"495450","office":"Jamnipali SO","district":"KORBA","state":"CHHATTISGARH","lat":22.41748,"lon":82.66002,"fullAddress":"Jamnipali SO, KORBA, CHHATTISGARH, 495450","country":"IN","stateCode":"CG"},{"pincode":"497231","office":"Shivprasadnagar BO","district":"SURAJPUR","state":"CHHATTISGARH","lat":23.310858,"lon":82.774791,"fullAddress":"Shivprasadnagar BO, SURAJPUR, CHHATTISGARH, 497231","country":"IN","stateCode":"CG"},{"pincode":"497111","office":"Katkalo BO","district":"SURGUJA","state":"CHHATTISGARH","lat":22.7796414,"lon":83.445279,"fullAddress":"Katkalo BO, SURGUJA, CHHATTISGARH, 497111","country":"IN","stateCode":"CG"},{"pincode":"494771","office":"Koygaon BO","district":"KANKER","state":"CHHATTISGARH","lat":20.1545,"lon":80.1545,"fullAddress":"Koygaon BO, KANKER, CHHATTISGARH, 494771","country":"IN","stateCode":"CG"},{"pincode":"494776","office":"Satyanagar","district":"KANKER","state":"CHHATTISGARH","lat":20.02135,"lon":81.63724,"fullAddress":"Satyanagar, KANKER, CHHATTISGARH, 494776","country":"IN","stateCode":"CG"},{"pincode":"491229","office":"Bagdongri  BO","district":"RAJNANDGAON","state":"CHHATTISGARH","lat":21.1006352,"lon":81.0350276,"fullAddress":"Bagdongri  BO, RAJNANDGAON, CHHATTISGARH, 491229","country":"IN","stateCode":"CG"},{"pincode":"496220","office":"Bahma BO","district":"RAIGARH","state":"CHHATTISGARH","lat":22.5217002,"lon":83.5762898,"fullAddress":"Bahma BO, RAIGARH, CHHATTISGARH, 496220","country":"IN","stateCode":"CG"},{"pincode":"497229","office":"Salhi BO","district":"SURAJPUR","state":"CHHATTISGARH","lat":23.140965,"lon":82.832248,"fullAddress":"Salhi BO, SURAJPUR, CHHATTISGARH, 497229","country":"IN","stateCode":"CG"},{"pincode":"494114","office":"Kistaram B.O","district":"RAIPUR","state":"CHHATTISGARH","lat":18.01409,"lon":81.052,"fullAddress":"Kistaram B.O, RAIPUR, CHHATTISGARH, 494114","country":"IN","stateCode":"CG"},{"pincode":"497111","office":"Girhuldih BO","district":"SURGUJA","state":"CHHATTISGARH","lat":22.8170834,"lon":83.630515,"fullAddress":"Girhuldih BO, SURGUJA, CHHATTISGARH, 497111","country":"IN","stateCode":"CG"},{"pincode":"493445","office":"Sher B.O","district":"MAHASAMUND","state":"CHHATTISGARH","lat":21.063429,"lon":82.053696,"fullAddress":"Sher B.O, MAHASAMUND, CHHATTISGARH, 493445","country":"IN","stateCode":"CG"},{"pincode":"491111","office":"Darbarmokhli BO","district":"DURG","state":"CHHATTISGARH","lat":21.229029,"lon":81.316561,"fullAddress":"Darbarmokhli BO, DURG, CHHATTISGARH, 491111","country":"IN","stateCode":"CG"},{"pincode":"496100","office":"Loharsingh BO","district":"RAIGARH","state":"CHHATTISGARH","lat":21.836354,"lon":83.3522229,"fullAddress":"Loharsingh BO, RAIGARH, CHHATTISGARH, 496100","country":"IN","stateCode":"CG"},{"pincode":"496223","office":"Pongro BO","district":"JASHPUR","state":"CHHATTISGARH","lat":22.622507,"lon":83.7252266,"fullAddress":"Pongro BO, JASHPUR, CHHATTISGARH, 496223","country":"IN","stateCode":"CG"},{"pincode":"494331","office":"Kohkameta B.O","district":"RAIPUR","state":"CHHATTISGARH","lat":19.77,"lon":81.07,"fullAddress":"Kohkameta B.O, RAIPUR, CHHATTISGARH, 494331","country":"IN","stateCode":"CG"},{"pincode":"493891","office":"Kodobhatha B.O","district":"GARIYABAND","state":"CHHATTISGARH","lat":21.23784,"lon":81.70542,"fullAddress":"Kodobhatha B.O, GARIYABAND, CHHATTISGARH, 493891","country":"IN","stateCode":"CG"},{"pincode":"495449","office":"Beltara BO","district":"BILASPUR","state":"CHHATTISGARH","lat":22.283864,"lon":82.271909,"fullAddress":"Beltara BO, BILASPUR, CHHATTISGARH, 495449","country":"IN","stateCode":"CG"},{"pincode":"497778","office":"Ara B.O","district":"KOREA","state":"CHHATTISGARH","lat":23.608138,"lon":81.72947,"fullAddress":"Ara B.O, KOREA, CHHATTISGARH, 497778","country":"IN","stateCode":"CG"},{"pincode":"491111","office":"Bhansuli BO","district":"DURG","state":"CHHATTISGARH","lat":21.244242,"lon":81.353691,"fullAddress":"Bhansuli BO, DURG, CHHATTISGARH, 491111","country":"IN","stateCode":"CG"},{"pincode":"494449","office":"NETAPUR B.O","district":"DANTEWADA","state":"CHHATTISGARH","lat":18.889,"lon":81.298,"fullAddress":"NETAPUR B.O, DANTEWADA, CHHATTISGARH, 494449","country":"IN","stateCode":"CG"},{"pincode":"494335","office":"Nishanharra","district":"RAIPUR","state":"CHHATTISGARH","lat":20.168713,"lon":81.629538,"fullAddress":"Nishanharra, RAIPUR, CHHATTISGARH, 494335","country":"IN","stateCode":"CG"},{"pincode":"490042","office":"Pahanda BO","district":"DURG","state":"CHHATTISGARH","lat":21.209509,"lon":81.543187,"fullAddress":"Pahanda BO, DURG, CHHATTISGARH, 490042","country":"IN","stateCode":"CG"},{"pincode":"493195","office":"Hirmi SO","district":"BALODA BAZAR","state":"CHHATTISGARH","lat":21.533333,"lon":81.933333,"fullAddress":"Hirmi SO, BALODA BAZAR, CHHATTISGARH, 493195","country":"IN","stateCode":"CG"},{"pincode":"495116","office":"Khairjhiti BO","district":"BILASPUR","state":"CHHATTISGARH","lat":22.428373,"lon":82.082462,"fullAddress":"Khairjhiti BO, BILASPUR, CHHATTISGARH, 495116","country":"IN","stateCode":"CG"},{"pincode":"497449","office":"Sons BO","district":"KOREA","state":"CHHATTISGARH","lat":23.137212,"lon":82.533723,"fullAddress":"Sons BO, KOREA, CHHATTISGARH, 497449","country":"IN","stateCode":"CG"},{"pincode":"491441","office":"Aargaon  BO","district":"RAJNANDGAON","state":"CHHATTISGARH","lat":21.41338,"lon":80.7841,"fullAddress":"Aargaon  BO, RAJNANDGAON, CHHATTISGARH, 491441","country":"IN","stateCode":"CG"},{"pincode":"491227","office":"Kaneri BO","district":"BALOD","state":"CHHATTISGARH","lat":20.693802,"lon":81.45811,"fullAddress":"Kaneri BO, BALOD, CHHATTISGARH, 491227","country":"IN","stateCode":"CG"},{"pincode":"496242","office":"Sahaspur BO","district":"JASHPUR","state":"CHHATTISGARH","lat":22.4858268,"lon":83.7969085,"fullAddress":"Sahaspur BO, JASHPUR, CHHATTISGARH, 496242","country":"IN","stateCode":"CG"},{"pincode":"491885","office":"Junwani BO","district":"RAJNANDGAON","state":"CHHATTISGARH","lat":21.5225,"lon":80.9952,"fullAddress":"Junwani BO, RAJNANDGAON, CHHATTISGARH, 491885","country":"IN","stateCode":"CG"},{"pincode":"497223","office":"Bartikala BO","district":"BALRAMPUR","state":"CHHATTISGARH","lat":23.6373857,"lon":83.02013263,"fullAddress":"Bartikala BO, BALRAMPUR, CHHATTISGARH, 497223","country":"IN","stateCode":"CG"},{"pincode":"491226","office":"Admabad BO","district":"BALOD","state":"CHHATTISGARH","lat":20.706028,"lon":81.235876,"fullAddress":"Admabad BO, BALOD, CHHATTISGARH, 491226","country":"IN","stateCode":"CG"},{"pincode":"496220","office":"Bagbahar BO","district":"JASHPUR","state":"CHHATTISGARH","lat":22.5408343,"lon":83.7553876,"fullAddress":"Bagbahar BO, JASHPUR, CHHATTISGARH, 496220","country":"IN","stateCode":"CG"},{"pincode":"491771","office":"Faradfod BO","district":"BALOD","state":"CHHATTISGARH","lat":20.946261,"lon":81.078225,"fullAddress":"Faradfod BO, BALOD, CHHATTISGARH, 491771","country":"IN","stateCode":"CG"},{"pincode":"494670","office":"Aalbeda","district":"RAIPUR","state":"CHHATTISGARH","lat":23.05611,"lon":88.81043,"fullAddress":"Aalbeda, RAIPUR, CHHATTISGARH, 494670","country":"IN","stateCode":"CG"},{"pincode":"495330","office":"Padampur BO","district":"MUNGELI","state":"CHHATTISGARH","lat":22.092556,"lon":81.868875,"fullAddress":"Padampur BO, MUNGELI, CHHATTISGARH, 495330","country":"IN","stateCode":"CG"},{"pincode":"497446","office":"Jhagrakhand Colly SO","district":"KOREA","state":"CHHATTISGARH","lat":23.193095,"lon":82.196255,"fullAddress":"Jhagrakhand Colly SO, KOREA, CHHATTISGARH, 497446","country":"IN","stateCode":"CG"},{"pincode":"494450","office":"Mandem B.O","district":"BIJAPUR","state":"CHHATTISGARH","lat":19.0123,"lon":81.1462,"fullAddress":"Mandem B.O, BIJAPUR, CHHATTISGARH, 494450","country":"IN","stateCode":"CG"},{"pincode":"493225","office":"Bhainsa BO","district":"RAIPUR","state":"CHHATTISGARH","lat":21.23784,"lon":81.70542,"fullAddress":"Bhainsa BO, RAIPUR, CHHATTISGARH, 493225","country":"IN","stateCode":"CG"},{"pincode":"494334","office":"Mardapoti B.O","district":"RAIPUR","state":"CHHATTISGARH","lat":20.19,"lon":81.47,"fullAddress":"Mardapoti B.O, RAIPUR, CHHATTISGARH, 494334","country":"IN","stateCode":"CG"},{"pincode":"493228","office":"Amera BO","district":"BALODA BAZAR","state":"CHHATTISGARH","lat":21.5,"lon":81.2,"fullAddress":"Amera BO, BALODA BAZAR, CHHATTISGARH, 493228","country":"IN","stateCode":"CG"},{"pincode":"491336","office":"Jhironi BO","district":"KABIRDHAM","state":"CHHATTISGARH","lat":21.919058,"lon":81.312434,"fullAddress":"Jhironi BO, KABIRDHAM, CHHATTISGARH, 491336","country":"IN","stateCode":"CG"},{"pincode":"497220","office":"Lodha BO","district":"BALRAMPUR","state":"CHHATTISGARH","lat":23.859878,"lon":83.470425,"fullAddress":"Lodha BO, BALRAMPUR, CHHATTISGARH, 497220","country":"IN","stateCode":"CG"},{"pincode":"493441","office":"Lakholi BO","district":"RAIPUR","state":"CHHATTISGARH","lat":21.5,"lon":81.2,"fullAddress":"Lakholi BO, RAIPUR, CHHATTISGARH, 493441","country":"IN","stateCode":"CG"},{"pincode":"495692","office":"Madwa BO","district":"JANJGIR-CHAMPA","state":"CHHATTISGARH","lat":21.752589,"lon":83.220808,"fullAddress":"Madwa BO, JANJGIR-CHAMPA, CHHATTISGARH, 495692","country":"IN","stateCode":"CG"},{"pincode":"497001","office":"Kundikala BO","district":"BALRAMPUR","state":"CHHATTISGARH","lat":23.174661,"lon":83.338865,"fullAddress":"Kundikala BO, BALRAMPUR, CHHATTISGARH, 497001","country":"IN","stateCode":"CG"},{"pincode":"495689","office":"Barpalikala BO","district":"JANJGIR-CHAMPA","state":"CHHATTISGARH","lat":22.121646,"lon":82.872138,"fullAddress":"Barpalikala BO, JANJGIR-CHAMPA, CHHATTISGARH, 495689","country":"IN","stateCode":"CG"},{"pincode":"493992","office":"Sorid BO","district":"GARIYABAND","state":"CHHATTISGARH","lat":21.5,"lon":81.5,"fullAddress":"Sorid BO, GARIYABAND, CHHATTISGARH, 493992","country":"IN","stateCode":"CG"},{"pincode":"494669","office":"Pevari BO","district":"KANKER","state":"CHHATTISGARH","lat":19.5492,"lon":81.15452,"fullAddress":"Pevari BO, KANKER, CHHATTISGARH, 494669","country":"IN","stateCode":"CG"},{"pincode":"494449","office":"Pandewar B.O","district":"DANTEWADA","state":"CHHATTISGARH","lat":18.791,"lon":81.287,"fullAddress":"Pandewar B.O, DANTEWADA, CHHATTISGARH, 494449","country":"IN","stateCode":"CG"},{"pincode":"496224","office":"Durgapara BO","district":"JASHPUR","state":"CHHATTISGARH","lat":22.9703466,"lon":83.5230123,"fullAddress":"Durgapara BO, JASHPUR, CHHATTISGARH, 496224","country":"IN","stateCode":"CG"},{"pincode":"494776","office":"Pratappur B.O","district":"KANKER","state":"CHHATTISGARH","lat":80.8702,"lon":19.9765,"fullAddress":"Pratappur B.O, KANKER, CHHATTISGARH, 494776","country":"IN","stateCode":"CG"},{"pincode":"491888","office":"Rengakhar BO","district":"DURG","state":"CHHATTISGARH","lat":22.060229,"lon":81.243623,"fullAddress":"Rengakhar BO, DURG, CHHATTISGARH, 491888","country":"IN","stateCode":"CG"},{"pincode":"494444","office":"PALNAR B.O","district":"RAIPUR","state":"CHHATTISGARH","lat":18.874,"lon":80.821,"fullAddress":"PALNAR B.O, RAIPUR, CHHATTISGARH, 494444","country":"IN","stateCode":"CG"},{"pincode":"493113","office":"Mohbhatta BO","district":"BALODA BAZAR","state":"CHHATTISGARH","lat":21.5,"lon":81.5,"fullAddress":"Mohbhatta BO, BALODA BAZAR, CHHATTISGARH, 493113","country":"IN","stateCode":"CG"},{"pincode":"494777","office":"Kurenar B.O","district":"KANKER","state":"CHHATTISGARH","lat":19.85,"lon":80.52,"fullAddress":"Kurenar B.O, KANKER, CHHATTISGARH, 494777","country":"IN","stateCode":"CG"},{"pincode":"491227","office":"BHANPURI B.O.","district":"BALOD","state":"CHHATTISGARH","lat":21.163,"lon":80.88,"fullAddress":"BHANPURI B.O., BALOD, CHHATTISGARH, 491227","country":"IN","stateCode":"CG"},{"pincode":"493663","office":"Bhaismundi BO","district":"DHAMTARI","state":"CHHATTISGARH","lat":21.5,"lon":81.5,"fullAddress":"Bhaismundi BO, DHAMTARI, CHHATTISGARH, 493663","country":"IN","stateCode":"CG"},{"pincode":"497118","office":"Sargarhi Govindpur B.O","district":"BALRAMPUR","state":"CHHATTISGARH","lat":23.449615,"lon":83.5317016,"fullAddress":"Sargarhi Govindpur B.O, BALRAMPUR, CHHATTISGARH, 497118","country":"IN","stateCode":"CG"},{"pincode":"494334","office":"Kanker H.O","district":"RAIPUR","state":"CHHATTISGARH","lat":20.265096,"lon":81.49589,"fullAddress":"Kanker H.O, RAIPUR, CHHATTISGARH, 494334","country":"IN","stateCode":"CG"},{"pincode":"496338","office":"Paiku BO","district":"JASHPUR","state":"CHHATTISGARH","lat":22.225517,"lon":84.5322195,"fullAddress":"Paiku BO, JASHPUR, CHHATTISGARH, 496338","country":"IN","stateCode":"CG"},{"pincode":"491001","office":"Jeora Sirsa BO","district":"DURG","state":"CHHATTISGARH","lat":21.25802,"lon":81.305556,"fullAddress":"Jeora Sirsa BO, DURG, CHHATTISGARH, 491001","country":"IN","stateCode":"CG"},{"pincode":"494556","office":"Burgum B.O","district":"DANTEWADA","state":"CHHATTISGARH","lat":81.21,"lon":18.63,"fullAddress":"Burgum B.O, DANTEWADA, CHHATTISGARH, 494556","country":"IN","stateCode":"CG"},{"pincode":"494635","office":"Chindgaon","district":"KANKER","state":"CHHATTISGARH","lat":20.30623,"lon":81.03647,"fullAddress":"Chindgaon, KANKER, CHHATTISGARH, 494635","country":"IN","stateCode":"CG"},{"pincode":"494010","office":"Chhaparbhanpuri B.O","district":"RAIPUR","state":"CHHATTISGARH","lat":19.72506,"lon":81.49526,"fullAddress":"Chhaparbhanpuri B.O, RAIPUR, CHHATTISGARH, 494010","country":"IN","stateCode":"CG"},{"pincode":"494449","office":"CHANDENAR B.O","district":"DANTEWADA","state":"CHHATTISGARH","lat":18.765,"lon":81.258,"fullAddress":"CHANDENAR B.O, DANTEWADA, CHHATTISGARH, 494449","country":"IN","stateCode":"CG"},{"pincode":"490021","office":"Aundhi BO","district":"DURG","state":"CHHATTISGARH","lat":21.179872,"lon":81.468407,"fullAddress":"Aundhi BO, DURG, CHHATTISGARH, 490021","country":"IN","stateCode":"CG"},{"pincode":"495448","office":"Jalke BO","district":"KORBA","state":"CHHATTISGARH","lat":22.884241,"lon":82.383156,"fullAddress":"Jalke BO, KORBA, CHHATTISGARH, 495448","country":"IN","stateCode":"CG"},{"pincode":"494331","office":"Jamgaon B.O","district":"RAIPUR","state":"CHHATTISGARH","lat":20.0919,"lon":81.5934,"fullAddress":"Jamgaon B.O, RAIPUR, CHHATTISGARH, 494331","country":"IN","stateCode":"CG"},{"pincode":"493116","office":"Silyari BO","district":"RAIPUR","state":"CHHATTISGARH","lat":21.5,"lon":81.5,"fullAddress":"Silyari BO, RAIPUR, CHHATTISGARH, 493116","country":"IN","stateCode":"CG"},{"pincode":"494001","office":"Hatkachora B.O","district":"RAIPUR","state":"CHHATTISGARH","lat":19.4252,"lon":82.2159,"fullAddress":"Hatkachora B.O, RAIPUR, CHHATTISGARH, 494001","country":"IN","stateCode":"CG"},{"pincode":"491558","office":"Kolihalamti BO","district":"RAJNANDGAON","state":"CHHATTISGARH","lat":21.1006352,"lon":81.0350276,"fullAddress":"Kolihalamti BO, RAJNANDGAON, CHHATTISGARH, 491558","country":"IN","stateCode":"CG"},{"pincode":"495330","office":"Jarhagaon BO","district":"MUNGELI","state":"CHHATTISGARH","lat":22.131797,"lon":81.825169,"fullAddress":"Jarhagaon BO, MUNGELI, CHHATTISGARH, 495330","country":"IN","stateCode":"CG"},{"pincode":"491340","office":"Sambalpur BO","district":"BEMETARA","state":"CHHATTISGARH","lat":21.911243,"lon":81.742611,"fullAddress":"Sambalpur BO, BEMETARA, CHHATTISGARH, 491340","country":"IN","stateCode":"CG"},{"pincode":"494635","office":"Naghur","district":"KANKER","state":"CHHATTISGARH","lat":20.413689,"lon":80.936893,"fullAddress":"Naghur, KANKER, CHHATTISGARH, 494635","country":"IN","stateCode":"CG"},{"pincode":"493344","office":"Girod BO","district":"BALODA BAZAR","state":"CHHATTISGARH","lat":21.23784,"lon":81.70542,"fullAddress":"Girod BO, BALODA BAZAR, CHHATTISGARH, 493344","country":"IN","stateCode":"CG"},{"pincode":"496111","office":"Deogarh BO","district":"RAIGARH","state":"CHHATTISGARH","lat":22.1202519,"lon":83.390767,"fullAddress":"Deogarh BO, RAIGARH, CHHATTISGARH, 496111","country":"IN","stateCode":"CG"},{"pincode":"497225","office":"Basantpur BO","district":"BALRAMPUR","state":"CHHATTISGARH","lat":23.84019,"lon":83.199951,"fullAddress":"Basantpur BO, BALRAMPUR, CHHATTISGARH, 497225","country":"IN","stateCode":"CG"},{"pincode":"497449","office":"Katkona BO","district":"KOREA","state":"CHHATTISGARH","lat":22.983743,"lon":82.282479,"fullAddress":"Katkona BO, KOREA, CHHATTISGARH, 497449","country":"IN","stateCode":"CG"},{"pincode":"494114","office":"Injeram B.O","district":"RAIPUR","state":"CHHATTISGARH","lat":17.87861,"lon":81.39139,"fullAddress":"Injeram B.O, RAIPUR, CHHATTISGARH, 494114","country":"IN","stateCode":"CG"},{"pincode":"496661","office":"Bhainapara BO","district":"RAIGARH","state":"CHHATTISGARH","lat":21.94907,"lon":83.1354144,"fullAddress":"Bhainapara BO, RAIGARH, CHHATTISGARH, 496661","country":"IN","stateCode":"CG"},{"pincode":"494662","office":"Badgaon","district":"NARAYANPUR","state":"CHHATTISGARH","lat":19.4215,"lon":81.03654,"fullAddress":"Badgaon, NARAYANPUR, CHHATTISGARH, 494662","country":"IN","stateCode":"CG"},{"pincode":"491559","office":"Bagharra BO","district":"KABIRDHAM","state":"CHHATTISGARH","lat":22.150761,"lon":81.502033,"fullAddress":"Bagharra BO, KABIRDHAM, CHHATTISGARH, 491559","country":"IN","stateCode":"CG"},{"pincode":"493229","office":"Sisdeori BO","district":"BALODA BAZAR","state":"CHHATTISGARH","lat":21.5,"lon":81.2,"fullAddress":"Sisdeori BO, BALODA BAZAR, CHHATTISGARH, 493229","country":"IN","stateCode":"CG"},{"pincode":"497220","office":"Ganjar BO","district":"BALRAMPUR","state":"CHHATTISGARH","lat":23.935907,"lon":83.419279,"fullAddress":"Ganjar BO, BALRAMPUR, CHHATTISGARH, 497220","country":"IN","stateCode":"CG"},{"pincode":"494334","office":"Pidapal B.O","district":"RAIPUR","state":"CHHATTISGARH","lat":20.1951,"lon":81.3569,"fullAddress":"Pidapal B.O, RAIPUR, CHHATTISGARH, 494334","country":"IN","stateCode":"CG"},{"pincode":"495334","office":"Kosamtara BO","district":"MUNGELI","state":"CHHATTISGARH","lat":22.158632,"lon":81.536579,"fullAddress":"Kosamtara BO, MUNGELI, CHHATTISGARH, 495334","country":"IN","stateCode":"CG"},{"pincode":"491337","office":"Chirha BO","district":"BEMETARA","state":"CHHATTISGARH","lat":22.002625,"lon":81.496544,"fullAddress":"Chirha BO, BEMETARA, CHHATTISGARH, 491337","country":"IN","stateCode":"CG"},{"pincode":"494777","office":"Saver BO","district":"KANKER","state":"CHHATTISGARH","lat":19.1549,"lon":81.0249,"fullAddress":"Saver BO, KANKER, CHHATTISGARH, 494777","country":"IN","stateCode":"CG"},{"pincode":"491441","office":"Banhardi  BO","district":"RAJNANDGAON","state":"CHHATTISGARH","lat":21.06788,"lon":80.94756,"fullAddress":"Banhardi  BO, RAJNANDGAON, CHHATTISGARH, 491441","country":"IN","stateCode":"CG"},{"pincode":"493338","office":"Bilaigarh SO","district":"BALODA BAZAR","state":"CHHATTISGARH","lat":21.6408355,"lon":82.7212261,"fullAddress":"Bilaigarh SO, BALODA BAZAR, CHHATTISGARH, 493338","country":"IN","stateCode":"CG"},{"pincode":"491222","office":"Sikosa SO","district":"BALOD","state":"CHHATTISGARH","lat":21.202559,"lon":81.310766,"fullAddress":"Sikosa SO, BALOD, CHHATTISGARH, 491222","country":"IN","stateCode":"CG"},{"pincode":"497339","office":"Sonhat BO","district":"KOREA","state":"CHHATTISGARH","lat":23.480754,"lon":82.52198,"fullAddress":"Sonhat BO, KOREA, CHHATTISGARH, 497339","country":"IN","stateCode":"CG"},{"pincode":"493662","office":"Belardona BO","district":"DHAMTARI","state":"CHHATTISGARH","lat":21.5,"lon":81.2,"fullAddress":"Belardona BO, DHAMTARI, CHHATTISGARH, 493662","country":"IN","stateCode":"CG"},{"pincode":"495119","office":"Piparia BO","district":"KORBA","state":"CHHATTISGARH","lat":22.885353,"lon":81.9262,"fullAddress":"Piparia BO, KORBA, CHHATTISGARH, 495119","country":"IN","stateCode":"CG"},{"pincode":"491668","office":"Brahmanbhendi BO","district":"RAJNANDGAON","state":"CHHATTISGARH","lat":21.050997,"lon":80.743964,"fullAddress":"Brahmanbhendi BO, RAJNANDGAON, CHHATTISGARH, 491668","country":"IN","stateCode":"CG"},{"pincode":"491332","office":"Berla SO","district":"BEMETARA","state":"CHHATTISGARH","lat":20.72869,"lon":81.204474,"fullAddress":"Berla SO, BEMETARA, CHHATTISGARH, 491332","country":"IN","stateCode":"CG"},{"pincode":"491335","office":"Dadhi BO","district":"BEMETARA","state":"CHHATTISGARH","lat":21.897755,"lon":81.4742,"fullAddress":"Dadhi BO, BEMETARA, CHHATTISGARH, 491335","country":"IN","stateCode":"CG"},{"pincode":"491661","office":"Arajkund  BO","district":"RAJNANDGAON","state":"CHHATTISGARH","lat":20.6560987,"lon":80.7297571,"fullAddress":"Arajkund  BO, RAJNANDGAON, CHHATTISGARH, 491661","country":"IN","stateCode":"CG"},{"pincode":"493114","office":"Sarora BO","district":"RAIPUR","state":"CHHATTISGARH","lat":21.5,"lon":81.2,"fullAddress":"Sarora BO, RAIPUR, CHHATTISGARH, 493114","country":"IN","stateCode":"CG"},{"pincode":"495695","office":"Adbhar SO","district":"JANJGIR-CHAMPA","state":"CHHATTISGARH","lat":21.951083,"lon":83.03073,"fullAddress":"Adbhar SO, JANJGIR-CHAMPA, CHHATTISGARH, 495695","country":"IN","stateCode":"CG"},{"pincode":"496001","office":"Jhalmala BO","district":"RAIGARH","state":"CHHATTISGARH","lat":21.7957294,"lon":83.4567856,"fullAddress":"Jhalmala BO, RAIGARH, CHHATTISGARH, 496001","country":"IN","stateCode":"CG"},{"pincode":"491995","office":"Sonpuri BO","district":"KABIRDHAM","state":"CHHATTISGARH","lat":21.968289,"lon":81.293173,"fullAddress":"Sonpuri BO, KABIRDHAM, CHHATTISGARH, 491995","country":"IN","stateCode":"CG"},{"pincode":"495684","office":"Garh Uproda BO","district":"KORBA","state":"CHHATTISGARH","lat":22.634558,"lon":82.761008,"fullAddress":"Garh Uproda BO, KORBA, CHHATTISGARH, 495684","country":"IN","stateCode":"CG"},{"pincode":"494635","office":"Traighotiya B.O","district":"KANKER","state":"CHHATTISGARH","lat":20.39403,"lon":80.92873,"fullAddress":"Traighotiya B.O, KANKER, CHHATTISGARH, 494635","country":"IN","stateCode":"CG"},{"pincode":"493663","office":"Jhiriya BO","district":"DHAMTARI","state":"CHHATTISGARH","lat":21.5,"lon":81.2,"fullAddress":"Jhiriya BO, DHAMTARI, CHHATTISGARH, 493663","country":"IN","stateCode":"CG"},{"pincode":"493662","office":"Bhothidih BO","district":"DHAMTARI","state":"CHHATTISGARH","lat":21.5,"lon":81.2,"fullAddress":"Bhothidih BO, DHAMTARI, CHHATTISGARH, 493662","country":"IN","stateCode":"CG"},{"pincode":"494115","office":"Kokawada B.O","district":"RAIPUR","state":"CHHATTISGARH","lat":18.66381,"lon":81.8826,"fullAddress":"Kokawada B.O, RAIPUR, CHHATTISGARH, 494115","country":"IN","stateCode":"CG"},{"pincode":"491661","office":"Charbhata B  BO","district":"RAJNANDGAON","state":"CHHATTISGARH","lat":20.9713,"lon":80.8518,"fullAddress":"Charbhata B  BO, RAJNANDGAON, CHHATTISGARH, 491661","country":"IN","stateCode":"CG"},{"pincode":"491881","office":"Gadaghat BO","district":"RAJNANDGAON","state":"CHHATTISGARH","lat":21.38756,"lon":80.80163,"fullAddress":"Gadaghat BO, RAJNANDGAON, CHHATTISGARH, 491881","country":"IN","stateCode":"CG"},{"pincode":"495009","office":"Semartal BO","district":"BILASPUR","state":"CHHATTISGARH","lat":22.188163,"lon":82.159125,"fullAddress":"Semartal BO, BILASPUR, CHHATTISGARH, 495009","country":"IN","stateCode":"CG"},{"pincode":"497223","office":"Karsi BO","district":"SURAJPUR","state":"CHHATTISGARH","lat":23.4203906,"lon":83.278212,"fullAddress":"Karsi BO, SURAJPUR, CHHATTISGARH, 497223","country":"IN","stateCode":"CG"},{"pincode":"493558","office":"Ghatkachhar B.O","district":"MAHASAMUND","state":"CHHATTISGARH","lat":21.18475,"lon":82.59498,"fullAddress":"Ghatkachhar B.O, MAHASAMUND, CHHATTISGARH, 493558","country":"IN","stateCode":"CG"},{"pincode":"494334","office":"Vyas Kongera B.O","district":"RAIPUR","state":"CHHATTISGARH","lat":20.2163,"lon":81.543,"fullAddress":"Vyas Kongera B.O, RAIPUR, CHHATTISGARH, 494334","country":"IN","stateCode":"CG"},{"pincode":"494222","office":"Kodawand B.O","district":"RAIPUR","state":"CHHATTISGARH","lat":18.9316,"lon":81.1932,"fullAddress":"Kodawand B.O, RAIPUR, CHHATTISGARH, 494222","country":"IN","stateCode":"CG"},{"pincode":"496330","office":"Bhimsela BO","district":"JASHPUR","state":"CHHATTISGARH","lat":23.0148455,"lon":84.0537448,"fullAddress":"Bhimsela BO, JASHPUR, CHHATTISGARH, 496330","country":"IN","stateCode":"CG"},{"pincode":"493996","office":"Rasela BO","district":"GARIYABAND","state":"CHHATTISGARH","lat":21.5,"lon":81.5,"fullAddress":"Rasela BO, GARIYABAND, CHHATTISGARH, 493996","country":"IN","stateCode":"CG"},{"pincode":"496227","office":"Kandaibahar BO","district":"JASHPUR","state":"CHHATTISGARH","lat":22.4992681,"lon":83.9161935,"fullAddress":"Kandaibahar BO, JASHPUR, CHHATTISGARH, 496227","country":"IN","stateCode":"CG"},{"pincode":"494237","office":"Anantpur","district":"KONDAGAON","state":"CHHATTISGARH","lat":19.523,"lon":81.6214,"fullAddress":"Anantpur, KONDAGAON, CHHATTISGARH, 494237","country":"IN","stateCode":"CG"},{"pincode":"491881","office":"Vikrampur BO","district":"RAJNANDGAON","state":"CHHATTISGARH","lat":21.48683,"lon":80.89807,"fullAddress":"Vikrampur BO, RAJNANDGAON, CHHATTISGARH, 491881","country":"IN","stateCode":"CG"},{"pincode":"491881","office":"Khairbana BO","district":"RAJNANDGAON","state":"CHHATTISGARH","lat":21.45953,"lon":81.03776,"fullAddress":"Khairbana BO, RAJNANDGAON, CHHATTISGARH, 491881","country":"IN","stateCode":"CG"},{"pincode":"493449","office":"Bhadrasi BO","district":"MAHASAMUND","state":"CHHATTISGARH","lat":21.5,"lon":81.2,"fullAddress":"Bhadrasi BO, MAHASAMUND, CHHATTISGARH, 493449","country":"IN","stateCode":"CG"},{"pincode":"494670","office":"Kodagaon B.O","district":"RAIPUR","state":"CHHATTISGARH","lat":19.6,"lon":81.66,"fullAddress":"Kodagaon B.O, RAIPUR, CHHATTISGARH, 494670","country":"IN","stateCode":"CG"},{"pincode":"495689","office":"Portha BO","district":"JANJGIR-CHAMPA","state":"CHHATTISGARH","lat":22.017345,"lon":82.908019,"fullAddress":"Portha BO, JANJGIR-CHAMPA, CHHATTISGARH, 495689","country":"IN","stateCode":"CG"},{"pincode":"496440","office":"Kondpali BO","district":"RAIGARH","state":"CHHATTISGARH","lat":21.7356151,"lon":83.4296686,"fullAddress":"Kondpali BO, RAIGARH, CHHATTISGARH, 496440","country":"IN","stateCode":"CG"},{"pincode":"495691","office":"Malkharoda SO","district":"JANJGIR-CHAMPA","state":"CHHATTISGARH","lat":21.865348,"lon":82.993837,"fullAddress":"Malkharoda SO, JANJGIR-CHAMPA, CHHATTISGARH, 495691","country":"IN","stateCode":"CG"},{"pincode":"494670","office":"Korar S.O","district":"RAIPUR","state":"CHHATTISGARH","lat":20.3181278,"lon":81.2711546,"fullAddress":"Korar S.O, RAIPUR, CHHATTISGARH, 494670","country":"IN","stateCode":"CG"},{"pincode":"493992","office":"Phingeshwar SO","district":"GARIYABAND","state":"CHHATTISGARH","lat":20.96871,"lon":82.046913,"fullAddress":"Phingeshwar SO, GARIYABAND, CHHATTISGARH, 493992","country":"IN","stateCode":"CG"},{"pincode":"497114","office":"Pratapgarh SO","district":"SURGUJA","state":"CHHATTISGARH","lat":22.733254,"lon":83.474292,"fullAddress":"Pratapgarh SO, SURGUJA, CHHATTISGARH, 497114","country":"IN","stateCode":"CG"},{"pincode":"497778","office":"Khamrodh BO","district":"KOREA","state":"CHHATTISGARH","lat":23.702625,"lon":81.982898,"fullAddress":"Khamrodh BO, KOREA, CHHATTISGARH, 497778","country":"IN","stateCode":"CG"},{"pincode":"491661","office":"Barbaspur  BO","district":"RAJNANDGAON","state":"CHHATTISGARH","lat":21.65204,"lon":81.871414,"fullAddress":"Barbaspur  BO, RAJNANDGAON, CHHATTISGARH, 491661","country":"IN","stateCode":"CG"},{"pincode":"497223","office":"Pratappur SO Surguja","district":"SURAJPUR","state":"CHHATTISGARH","lat":23.4780345,"lon":83.2075971,"fullAddress":"Pratappur SO Surguja, SURAJPUR, CHHATTISGARH, 497223","country":"IN","stateCode":"CG"},{"pincode":"494333","office":"Devinawagaon B.O","district":"RAIPUR","state":"CHHATTISGARH","lat":20.51026,"lon":81.54688,"fullAddress":"Devinawagaon B.O, RAIPUR, CHHATTISGARH, 494333","country":"IN","stateCode":"CG"},{"pincode":"496116","office":"Hati BO","district":"RAIGARH","state":"CHHATTISGARH","lat":22.3015358,"lon":83.0911609,"fullAddress":"Hati BO, RAIGARH, CHHATTISGARH, 496116","country":"IN","stateCode":"CG"},{"pincode":"491881","office":"Piplakachhar BO","district":"RAJNANDGAON","state":"CHHATTISGARH","lat":21.39376,"lon":80.92865,"fullAddress":"Piplakachhar BO, RAJNANDGAON, CHHATTISGARH, 491881","country":"IN","stateCode":"CG"},{"pincode":"497225","office":"Biharpur BO","district":"SURAJPUR","state":"CHHATTISGARH","lat":23.859723,"lon":82.689387,"fullAddress":"Biharpur BO, SURAJPUR, CHHATTISGARH, 497225","country":"IN","stateCode":"CG"},{"pincode":"491995","office":"Koylari BO","district":"KABIRDHAM","state":"CHHATTISGARH","lat":21.790365,"lon":81.061666,"fullAddress":"Koylari BO, KABIRDHAM, CHHATTISGARH, 491995","country":"IN","stateCode":"CG"},{"pincode":"496336","office":"Saraitoli BO","district":"JASHPUR","state":"CHHATTISGARH","lat":23.0873651,"lon":83.8552545,"fullAddress":"Saraitoli BO, JASHPUR, CHHATTISGARH, 496336","country":"IN","stateCode":"CG"},{"pincode":"490025","office":"Urla BO","district":"DURG","state":"CHHATTISGARH","lat":21.318535,"lon":81.608601,"fullAddress":"Urla BO, DURG, CHHATTISGARH, 490025","country":"IN","stateCode":"CG"},{"pincode":"494224","office":"Cherapur B.O","district":"KONDAGAON","state":"CHHATTISGARH","lat":19.1624,"lon":81.921,"fullAddress":"Cherapur B.O, KONDAGAON, CHHATTISGARH, 494224","country":"IN","stateCode":"CG"},{"pincode":"494331","office":"Singanpur B.O","district":"RAIPUR","state":"CHHATTISGARH","lat":20.03,"lon":81.58,"fullAddress":"Singanpur B.O, RAIPUR, CHHATTISGARH, 494331","country":"IN","stateCode":"CG"},{"pincode":"494335","office":"Dhanesara B.O","district":"RAIPUR","state":"CHHATTISGARH","lat":20.32694,"lon":81.65314,"fullAddress":"Dhanesara B.O, RAIPUR, CHHATTISGARH, 494335","country":"IN","stateCode":"CG"},{"pincode":"494776","office":"Lakhanpur","district":"KANKER","state":"CHHATTISGARH","lat":20.03254,"lon":81.624957,"fullAddress":"Lakhanpur, KANKER, CHHATTISGARH, 494776","country":"IN","stateCode":"CG"},{"pincode":"491228","office":"Kusumkasa BO","district":"BALOD","state":"CHHATTISGARH","lat":20.640772,"lon":81.082365,"fullAddress":"Kusumkasa BO, BALOD, CHHATTISGARH, 491228","country":"IN","stateCode":"CG"},{"pincode":"494226","office":"Pala BO","district":"KONDAGAON","state":"CHHATTISGARH","lat":null,"lon":null,"fullAddress":"Pala BO, KONDAGAON, CHHATTISGARH, 494226","country":"IN","stateCode":"CG"},{"pincode":"496107","office":"Dhourabhata BO","district":"RAIGARH","state":"CHHATTISGARH","lat":22.1082344,"lon":83.5027621,"fullAddress":"Dhourabhata BO, RAIGARH, CHHATTISGARH, 496107","country":"IN","stateCode":"CG"},{"pincode":"493773","office":"Tarsiwa BO","district":"DHAMTARI","state":"CHHATTISGARH","lat":21.5,"lon":81.5,"fullAddress":"Tarsiwa BO, DHAMTARI, CHHATTISGARH, 493773","country":"IN","stateCode":"CG"}]