[{"pincode":"110010","office":"A F Palam SO","district":"NEW DELHI","state":"DELHI","lat":28.5778333,"lon":77.1221667,"fullAddress":"A F Palam SO, NEW DELHI, DELHI, 110010","country":"IN","stateCode":"DL"},{"pincode":"110009","office":"Model Town III SO","district":"NORTH","state":"DELHI","lat":28.7075278,"lon":77.1880556,"fullAddress":"Model Town III SO, NORTH, DELHI, 110009","country":"IN","stateCode":"DL"},{"pincode":"110020","office":"C R R I SO South Delhi","district":"South East","state":"DELHI","lat":28.551707,"lon":77.275149,"fullAddress":"C R R I SO South Delhi, South East, DELHI, 110020","country":"IN","stateCode":"DL"},{"pincode":"110095","office":"Jhilmil Tahirpur BO","district":"SHAHDARA","state":"DELHI","lat":28.68254,"lon":77.31315,"fullAddress":"Jhilmil Tahirpur BO, SHAHDARA, DELHI, 110095","country":"IN","stateCode":"DL"},{"pincode":"110039","office":"Nangal Thakran BO","district":"NORTH","state":"DELHI","lat":28.7996944,"lon":77.0380555,"fullAddress":"Nangal Thakran BO, NORTH, DELHI, 110039","country":"IN","stateCode":"DL"},{"pincode":"110081","office":"Chand Pur BO","district":"NORTH WEST","state":"DELHI","lat":28.7349166,"lon":77.0055555,"fullAddress":"Chand Pur BO, NORTH WEST, DELHI, 110081","country":"IN","stateCode":"DL"},{"pincode":"110017","office":"Distt Court Complex Saket SO","district":"SOUTH","state":"DELHI","lat":28.528842,"lon":77.222557,"fullAddress":"Distt Court Complex Saket SO, SOUTH, DELHI, 110017","country":"IN","stateCode":"DL"},{"pincode":"110096","office":"Ghazipur BO","district":"EAST","state":"DELHI","lat":28.61777,"lon":77.32961,"fullAddress":"Ghazipur BO, EAST, DELHI, 110096","country":"IN","stateCode":"DL"},{"pincode":"110092","office":"Surajmal Vihar SO","district":"SHAHDARA","state":"DELHI","lat":28.6617778,"lon":77.3059722,"fullAddress":"Surajmal Vihar SO, SHAHDARA, DELHI, 110092","country":"IN","stateCode":"DL"},{"pincode":"110083","office":"Mangolpuri A Block SO","district":"NORTH WEST","state":"DELHI","lat":28.6938611,"lon":77.0936111,"fullAddress":"Mangolpuri A Block SO, NORTH WEST, DELHI, 110083","country":"IN","stateCode":"DL"},{"pincode":"110001","office":"Patiala House SO","district":"NEW DELHI","state":"DELHI","lat":28.2348611,"lon":77.2348611,"fullAddress":"Patiala House SO, NEW DELHI, DELHI, 110001","country":"IN","stateCode":"DL"},{"pincode":"110035","office":"Power House SO","district":"NORTH WEST","state":"DELHI","lat":28.6738333,"lon":77.1445833,"fullAddress":"Power House SO, NORTH WEST, DELHI, 110035","country":"IN","stateCode":"DL"},{"pincode":"110035","office":"Ganeshpura SO","district":"NORTH WEST","state":"DELHI","lat":28.6754167,"lon":77.1655556,"fullAddress":"Ganeshpura SO, NORTH WEST, DELHI, 110035","country":"IN","stateCode":"DL"},{"pincode":"110037","office":"Mahipalpur BO","district":"NEW DELHI","state":"DELHI","lat":28.54,"lon":77.12,"fullAddress":"Mahipalpur BO, NEW DELHI, DELHI, 110037","country":"IN","stateCode":"DL"},{"pincode":"110049","office":"Sahpurjat BO","district":"SOUTH","state":"DELHI","lat":28.55,"lon":77.21,"fullAddress":"Sahpurjat BO, SOUTH, DELHI, 110049","country":"IN","stateCode":"DL"},{"pincode":"110058","office":"Janakpuri A 3 S.O","district":"WEST","state":"DELHI","lat":28.6241111,"lon":77.0793611,"fullAddress":"Janakpuri A 3 S.O, WEST, DELHI, 110058","country":"IN","stateCode":"DL"},{"pincode":"110043","office":"Khaira B.O","district":"WEST","state":"DELHI","lat":24.871535,"lon":86.207106,"fullAddress":"Khaira B.O, WEST, DELHI, 110043","country":"IN","stateCode":"DL"},{"pincode":"110043","office":"Rewla Khanpur B.O","district":"WEST","state":"DELHI","lat":28.564726,"lon":76.981441,"fullAddress":"Rewla Khanpur B.O, WEST, DELHI, 110043","country":"IN","stateCode":"DL"},{"pincode":"110006","office":"Delhi Sadar Bazar SO","district":"NORTH","state":"DELHI","lat":28.6579722,"lon":77.2144444,"fullAddress":"Delhi Sadar Bazar SO, NORTH, DELHI, 110006","country":"IN","stateCode":"DL"},{"pincode":"110001","office":"Connaught Place SO","district":"NEW DELHI","state":"DELHI","lat":28.6331389,"lon":77.2179444,"fullAddress":"Connaught Place SO, NEW DELHI, DELHI, 110001","country":"IN","stateCode":"DL"},{"pincode":"110032","office":"Babarpur SO North East Delhi","district":"SHAHDARA","state":"DELHI","lat":28.6739166,"lon":77.3198333,"fullAddress":"Babarpur SO North East Delhi, SHAHDARA, DELHI, 110032","country":"IN","stateCode":"DL"},{"pincode":"110040","office":"Bankner BO","district":"NORTH","state":"DELHI","lat":28.8508055,"lon":77.0880555,"fullAddress":"Bankner BO, NORTH, DELHI, 110040","country":"IN","stateCode":"DL"},{"pincode":"110062","office":"Hamdard Nagar SO","district":"SOUTH","state":"DELHI","lat":28.5125556,"lon":77.2510556,"fullAddress":"Hamdard Nagar SO, SOUTH, DELHI, 110062","country":"IN","stateCode":"DL"},{"pincode":"110043","office":"Arjun Park PO","district":"WEST","state":"DELHI","lat":28.622224,"lon":77.011825,"fullAddress":"Arjun Park PO, WEST, DELHI, 110043","country":"IN","stateCode":"DL"},{"pincode":"110018","office":"Chaukhandi B.O","district":"WEST","state":"DELHI","lat":24.867183,"lon":67.273615,"fullAddress":"Chaukhandi B.O, WEST, DELHI, 110018","country":"IN","stateCode":"DL"},{"pincode":"110092","office":"IP Extension SO","district":"EAST","state":"DELHI","lat":28.6336389,"lon":77.3111944,"fullAddress":"IP Extension SO, EAST, DELHI, 110092","country":"IN","stateCode":"DL"},{"pincode":"110053","office":"Brahampuri SO","district":"NORTH EAST","state":"DELHI","lat":28.6871944,"lon":77.2633056,"fullAddress":"Brahampuri SO, NORTH EAST, DELHI, 110053","country":"IN","stateCode":"DL"},{"pincode":"110025","office":"Sukhdev Vihar SO","district":"South East","state":"DELHI","lat":28.5561944,"lon":77.2783056,"fullAddress":"Sukhdev Vihar SO, South East, DELHI, 110025","country":"IN","stateCode":"DL"},{"pincode":"110094","office":"Gokal Puri SO","district":"NORTH EAST","state":"DELHI","lat":28.7039444,"lon":77.2833056,"fullAddress":"Gokal Puri SO, NORTH EAST, DELHI, 110094","country":"IN","stateCode":"DL"},{"pincode":"110020","office":"Okhla Industrial Estate SO","district":"SOUTH","state":"DELHI","lat":28.5521111,"lon":77.2686667,"fullAddress":"Okhla Industrial Estate SO, SOUTH, DELHI, 110020","country":"IN","stateCode":"DL"},{"pincode":"110053","office":"Seelampur SO","district":"NORTH EAST","state":"DELHI","lat":28.6737778,"lon":77.2763889,"fullAddress":"Seelampur SO, NORTH EAST, DELHI, 110053","country":"IN","stateCode":"DL"},{"pincode":"110090","office":"Shaheed Bhagat Singh Colony SO","district":"NORTH EAST","state":"DELHI","lat":28.6739166,"lon":77.3198333,"fullAddress":"Shaheed Bhagat Singh Colony SO, NORTH EAST, DELHI, 110090","country":"IN","stateCode":"DL"},{"pincode":"110034","office":"Maurya Enclave SO","district":"NORTH WEST","state":"DELHI","lat":28.7046667,"lon":77.1447222,"fullAddress":"Maurya Enclave SO, NORTH WEST, DELHI, 110034","country":"IN","stateCode":"DL"},{"pincode":"110007","office":"Gulabi Bagh SO","district":"NORTH WEST","state":"DELHI","lat":28.6736944,"lon":77.1918333,"fullAddress":"Gulabi Bagh SO, NORTH WEST, DELHI, 110007","country":"IN","stateCode":"DL"},{"pincode":"110036","office":"Kadipur BO","district":"NORTH","state":"DELHI","lat":28.7978055,"lon":77.13,"fullAddress":"Kadipur BO, NORTH, DELHI, 110036","country":"IN","stateCode":"DL"},{"pincode":"110039","office":"Mungeshpur BO","district":"NORTH","state":"DELHI","lat":28.7996944,"lon":77.0380555,"fullAddress":"Mungeshpur BO, NORTH, DELHI, 110039","country":"IN","stateCode":"DL"},{"pincode":"110092","office":"Laxmi Nagar Extension SO","district":"EAST","state":"DELHI","lat":28.6921111,"lon":77.3042222,"fullAddress":"Laxmi Nagar Extension SO, EAST, DELHI, 110092","country":"IN","stateCode":"DL"},{"pincode":"110056","office":"Shakur Basti Depot SO","district":"NORTH WEST","state":"DELHI","lat":28.6827222,"lon":77.1111111,"fullAddress":"Shakur Basti Depot SO, NORTH WEST, DELHI, 110056","country":"IN","stateCode":"DL"},{"pincode":"110095","office":"New Seemapuri SO","district":"SHAHDARA","state":"DELHI","lat":28.6891667,"lon":77.3285,"fullAddress":"New Seemapuri SO, SHAHDARA, DELHI, 110095","country":"IN","stateCode":"DL"},{"pincode":"110086","office":"Sultanpuri C Block SO","district":"NORTH WEST","state":"DELHI","lat":28.7016111,"lon":77.0797222,"fullAddress":"Sultanpuri C Block SO, NORTH WEST, DELHI, 110086","country":"IN","stateCode":"DL"},{"pincode":"110081","office":"Majra Dabas BO","district":"NORTH WEST","state":"DELHI","lat":28.7349166,"lon":77.0055555,"fullAddress":"Majra Dabas BO, NORTH WEST, DELHI, 110081","country":"IN","stateCode":"DL"},{"pincode":"110001","office":"South Avenue SO","district":"NEW DELHI","state":"DELHI","lat":28.6105833,"lon":77.1986944,"fullAddress":"South Avenue SO, NEW DELHI, DELHI, 110001","country":"IN","stateCode":"DL"},{"pincode":"110084","office":"Wazirabad Village SO","district":"CENTRAL","state":"DELHI","lat":28.722239,"lon":77.221819,"fullAddress":"Wazirabad Village SO, CENTRAL, DELHI, 110084","country":"IN","stateCode":"DL"},{"pincode":"110017","office":"Saket SO South Delhi","district":"SOUTH","state":"DELHI","lat":28.522984,"lon":77.21452,"fullAddress":"Saket SO South Delhi, SOUTH, DELHI, 110017","country":"IN","stateCode":"DL"},{"pincode":"110067","office":"JNU New Campus SO","district":"NEW DELHI","state":"DELHI","lat":28.5393611,"lon":77.1635,"fullAddress":"JNU New Campus SO, NEW DELHI, DELHI, 110067","country":"IN","stateCode":"DL"},{"pincode":"110039","office":"Auchandi BO","district":"NORTH","state":"DELHI","lat":28.7996944,"lon":77.0380555,"fullAddress":"Auchandi BO, NORTH, DELHI, 110039","country":"IN","stateCode":"DL"},{"pincode":"110084","office":"Sant Nagar SO","district":"CENTRAL","state":"DELHI","lat":28.7572222,"lon":77.1977777,"fullAddress":"Sant Nagar SO, CENTRAL, DELHI, 110084","country":"IN","stateCode":"DL"},{"pincode":"110083","office":"Mangolpuri I  Block SO","district":"NORTH WEST","state":"DELHI","lat":28.7147778,"lon":77.0878333,"fullAddress":"Mangolpuri I  Block SO, NORTH WEST, DELHI, 110083","country":"IN","stateCode":"DL"},{"pincode":"110035","office":"Keshavpuram SO","district":"NORTH WEST","state":"DELHI","lat":28.6921111,"lon":77.1578611,"fullAddress":"Keshavpuram SO, NORTH WEST, DELHI, 110035","country":"IN","stateCode":"DL"},{"pincode":"110042","office":"Samai Pur SO","district":"NORTH","state":"DELHI","lat":28.7441111,"lon":77.145,"fullAddress":"Samai Pur SO, NORTH, DELHI, 110042","country":"IN","stateCode":"DL"},{"pincode":"110087","office":"Jwala Puri S.O","district":"WEST","state":"DELHI","lat":28.6800278,"lon":77.07875,"fullAddress":"Jwala Puri S.O, WEST, DELHI, 110087","country":"IN","stateCode":"DL"},{"pincode":"110034","office":"Saraswati Vihar SO","district":"NORTH WEST","state":"DELHI","lat":28.6972778,"lon":77.1269444,"fullAddress":"Saraswati Vihar SO, NORTH WEST, DELHI, 110034","country":"IN","stateCode":"DL"},{"pincode":"110007","office":"Jawahar Nagar SO North Delhi","district":"NORTH","state":"DELHI","lat":28.678498,"lon":77.207323,"fullAddress":"Jawahar Nagar SO North Delhi, NORTH, DELHI, 110007","country":"IN","stateCode":"DL"},{"pincode":"110017","office":"South Malviya Nagar SO","district":"SOUTH","state":"DELHI","lat":28.522982,"lon":77.214514,"fullAddress":"South Malviya Nagar SO, SOUTH, DELHI, 110017","country":"IN","stateCode":"DL"},{"pincode":"110002","office":"AGCR SO","district":"CENTRAL","state":"DELHI","lat":28.6284722,"lon":77.2445556,"fullAddress":"AGCR SO, CENTRAL, DELHI, 110002","country":"IN","stateCode":"DL"},{"pincode":"110062","office":"Dakshinpuri PhaseIII SO","district":"SOUTH","state":"DELHI","lat":28.5155278,"lon":77.2374722,"fullAddress":"Dakshinpuri PhaseIII SO, SOUTH, DELHI, 110062","country":"IN","stateCode":"DL"},{"pincode":"110054","office":"Aruna Nagar SO","district":"CENTRAL","state":"DELHI","lat":28.697557,"lon":77.225067,"fullAddress":"Aruna Nagar SO, CENTRAL, DELHI, 110054","country":"IN","stateCode":"DL"},{"pincode":"110046","office":"Nangal Raya S.O","district":"NEW DELHI","state":"DELHI","lat":28.6110556,"lon":77.1088056,"fullAddress":"Nangal Raya S.O, NEW DELHI, DELHI, 110046","country":"IN","stateCode":"DL"},{"pincode":"110085","office":"Prashant Vihar SO","district":"NORTH WEST","state":"DELHI","lat":28.7168889,"lon":77.1380556,"fullAddress":"Prashant Vihar SO, NORTH WEST, DELHI, 110085","country":"IN","stateCode":"DL"},{"pincode":"110061","office":"Bijwasan SO","district":"SOUTH WEST","state":"DELHI","lat":28.53285,"lon":77.05162,"fullAddress":"Bijwasan SO, SOUTH WEST, DELHI, 110061","country":"IN","stateCode":"DL"},{"pincode":"110002","office":"Rouse Avenue Extension Counter SO","district":"CENTRAL","state":"DELHI","lat":28.6352,"lon":77.2469,"fullAddress":"Rouse Avenue Extension Counter SO, CENTRAL, DELHI, 110002","country":"IN","stateCode":"DL"},{"pincode":"110067","office":"JNU SO","district":"NEW DELHI","state":"DELHI","lat":28.55075,"lon":77.1792778,"fullAddress":"JNU SO, NEW DELHI, DELHI, 110067","country":"IN","stateCode":"DL"},{"pincode":"110085","office":"Rohini Sector 16 PO","district":"NORTH WEST","state":"DELHI","lat":28.73545,"lon":77.117477,"fullAddress":"Rohini Sector 16 PO, NORTH WEST, DELHI, 110085","country":"IN","stateCode":"DL"},{"pincode":"110055","office":"SRT NAGAR EXTENSION COUNTER","district":"CENTRAL","state":"DELHI","lat":28.6123,"lon":77.17,"fullAddress":"SRT NAGAR EXTENSION COUNTER, CENTRAL, DELHI, 110055","country":"IN","stateCode":"DL"},{"pincode":"110055","office":"Multani Dhanda SO","district":"WEST","state":"DELHI","lat":28.6461111,"lon":77.2094167,"fullAddress":"Multani Dhanda SO, WEST, DELHI, 110055","country":"IN","stateCode":"DL"},{"pincode":"110001","office":"Bhagat Singh Market SO","district":"NEW DELHI","state":"DELHI","lat":28.6330556,"lon":77.2077222,"fullAddress":"Bhagat Singh Market SO, NEW DELHI, DELHI, 110001","country":"IN","stateCode":"DL"},{"pincode":"110009","office":"Model Town II SO","district":"NORTH","state":"DELHI","lat":28.7062778,"lon":77.1897222,"fullAddress":"Model Town II SO, NORTH, DELHI, 110009","country":"IN","stateCode":"DL"},{"pincode":"110005","office":"Guru Gobind Singh Marg SO","district":"CENTRAL","state":"DELHI","lat":28.6556667,"lon":77.199,"fullAddress":"Guru Gobind Singh Marg SO, CENTRAL, DELHI, 110005","country":"IN","stateCode":"DL"},{"pincode":"110091","office":"Trilok Puri SO","district":"EAST","state":"DELHI","lat":28.6138889,"lon":77.2935556,"fullAddress":"Trilok Puri SO, EAST, DELHI, 110091","country":"IN","stateCode":"DL"},{"pincode":"110093","office":"Harsh Vihar SO","district":"NORTH EAST","state":"DELHI","lat":28.7021944,"lon":77.3236389,"fullAddress":"Harsh Vihar SO, NORTH EAST, DELHI, 110093","country":"IN","stateCode":"DL"},{"pincode":"110062","office":"Dr Ambedkar Nagar SO South Delhi","district":"SOUTH","state":"DELHI","lat":28.51,"lon":77.23,"fullAddress":"Dr Ambedkar Nagar SO South Delhi, SOUTH, DELHI, 110062","country":"IN","stateCode":"DL"},{"pincode":"110043","office":"Najafgarh S.O","district":"WEST","state":"DELHI","lat":28.607195,"lon":76.98457,"fullAddress":"Najafgarh S.O, WEST, DELHI, 110043","country":"IN","stateCode":"DL"},{"pincode":"110062","office":"Pushpa Bhawan SO","district":"SOUTH","state":"DELHI","lat":28.5276111,"lon":77.2328056,"fullAddress":"Pushpa Bhawan SO, SOUTH, DELHI, 110062","country":"IN","stateCode":"DL"},{"pincode":"110080","office":"Sangam Vihar SO","district":"SOUTH","state":"DELHI","lat":28.5,"lon":77.24,"fullAddress":"Sangam Vihar SO, SOUTH, DELHI, 110080","country":"IN","stateCode":"DL"},{"pincode":"110001","office":"Rail Bhawan SO","district":"NEW DELHI","state":"DELHI","lat":28.6158611,"lon":77.2113889,"fullAddress":"Rail Bhawan SO, NEW DELHI, DELHI, 110001","country":"IN","stateCode":"DL"},{"pincode":"110003","office":"C G O Complex SO","district":"South East","state":"DELHI","lat":28.5889167,"lon":77.2442778,"fullAddress":"C G O Complex SO, South East, DELHI, 110003","country":"IN","stateCode":"DL"},{"pincode":"110036","office":"Mukhmelpur BO","district":"NORTH","state":"DELHI","lat":28.7978055,"lon":77.13,"fullAddress":"Mukhmelpur BO, NORTH, DELHI, 110036","country":"IN","stateCode":"DL"},{"pincode":"110006","office":"Hauz Qazi SO","district":"NORTH","state":"DELHI","lat":28.6498056,"lon":77.2263333,"fullAddress":"Hauz Qazi SO, NORTH, DELHI, 110006","country":"IN","stateCode":"DL"},{"pincode":"110072","office":"Jharoda Kalan B.O","district":"SOUTH WEST","state":"DELHI","lat":28.652588,"lon":76.956454,"fullAddress":"Jharoda Kalan B.O, SOUTH WEST, DELHI, 110072","country":"IN","stateCode":"DL"},{"pincode":"110032","office":"Man Sarovar Park SO","district":"SHAHDARA","state":"DELHI","lat":28.6774167,"lon":77.2990833,"fullAddress":"Man Sarovar Park SO, SHAHDARA, DELHI, 110032","country":"IN","stateCode":"DL"},{"pincode":"110002","office":"Minto Road SO","district":"CENTRAL","state":"DELHI","lat":28.6339722,"lon":77.2175556,"fullAddress":"Minto Road SO, CENTRAL, DELHI, 110002","country":"IN","stateCode":"DL"},{"pincode":"110033","office":"Jahangir Puri D Block SO","district":"NORTH","state":"DELHI","lat":28.7305,"lon":77.1754722,"fullAddress":"Jahangir Puri D Block SO, NORTH, DELHI, 110033","country":"IN","stateCode":"DL"},{"pincode":"110086","office":"KIRARI SULEMAN NAGAR SO","district":"NORTH WEST","state":"DELHI","lat":28.69795,"lon":77.064361,"fullAddress":"KIRARI SULEMAN NAGAR SO, NORTH WEST, DELHI, 110086","country":"IN","stateCode":"DL"},{"pincode":"110052","office":"Satyawati Nagar SO","district":"NORTH","state":"DELHI","lat":28.6930833,"lon":77.1823056,"fullAddress":"Satyawati Nagar SO, NORTH, DELHI, 110052","country":"IN","stateCode":"DL"},{"pincode":"110049","office":"Andrewsganj SO","district":"SOUTH","state":"DELHI","lat":28.5640278,"lon":77.2324167,"fullAddress":"Andrewsganj SO, SOUTH, DELHI, 110049","country":"IN","stateCode":"DL"},{"pincode":"110005","office":"Sat Nagar SO","district":"CENTRAL","state":"DELHI","lat":28.6488333,"lon":77.1821111,"fullAddress":"Sat Nagar SO, CENTRAL, DELHI, 110005","country":"IN","stateCode":"DL"},{"pincode":"110026","office":"Punjabi Bagh Sec   III S.O","district":"WEST","state":"DELHI","lat":28.6198611,"lon":77.0975833,"fullAddress":"Punjabi Bagh Sec   III S.O, WEST, DELHI, 110026","country":"IN","stateCode":"DL"},{"pincode":"110071","office":"Qutub Vihar SO","district":"SOUTH WEST","state":"DELHI","lat":28.574806,"lon":77.627685,"fullAddress":"Qutub Vihar SO, SOUTH WEST, DELHI, 110071","country":"IN","stateCode":"DL"},{"pincode":"110001","office":"Krishi Bhawan SO","district":"NEW DELHI","state":"DELHI","lat":28.6159444,"lon":77.213,"fullAddress":"Krishi Bhawan SO, NEW DELHI, DELHI, 110001","country":"IN","stateCode":"DL"},{"pincode":"110085","office":"Avantika SO","district":"NORTH WEST","state":"DELHI","lat":28.707962,"lon":77.117033,"fullAddress":"Avantika SO, NORTH WEST, DELHI, 110085","country":"IN","stateCode":"DL"},{"pincode":"110041","office":"Bakkarwala B.O","district":"WEST","state":"DELHI","lat":28.666501,"lon":77.016371,"fullAddress":"Bakkarwala B.O, WEST, DELHI, 110041","country":"IN","stateCode":"DL"},{"pincode":"110089","office":"Rohini Sector 15 SO","district":"NORTH WEST","state":"DELHI","lat":28.7348056,"lon":77.1325,"fullAddress":"Rohini Sector 15 SO, NORTH WEST, DELHI, 110089","country":"IN","stateCode":"DL"},{"pincode":"110085","office":"Rohini Sector7 SO","district":"NORTH WEST","state":"DELHI","lat":28.6933611,"lon":77.1713889,"fullAddress":"Rohini Sector7 SO, NORTH WEST, DELHI, 110085","country":"IN","stateCode":"DL"},{"pincode":"110032","office":"Shivaji Park SO East Delhi","district":"SHAHDARA","state":"DELHI","lat":28.6739166,"lon":77.3198333,"fullAddress":"Shivaji Park SO East Delhi, SHAHDARA, DELHI, 110032","country":"IN","stateCode":"DL"},{"pincode":"110028","office":"Naraina Village S.O","district":"NEW DELHI","state":"DELHI","lat":28.6305,"lon":77.1349167,"fullAddress":"Naraina Village S.O, NEW DELHI, DELHI, 110028","country":"IN","stateCode":"DL"},{"pincode":"110046","office":"Sagarpur S.O","district":"NEW DELHI","state":"DELHI","lat":28.6110556,"lon":77.1029167,"fullAddress":"Sagarpur S.O, NEW DELHI, DELHI, 110046","country":"IN","stateCode":"DL"},{"pincode":"110017","office":"Pushp Vihar SO","district":"SOUTH","state":"DELHI","lat":28.5245556,"lon":77.2204444,"fullAddress":"Pushp Vihar SO, SOUTH, DELHI, 110017","country":"IN","stateCode":"DL"},{"pincode":"110043","office":"Durga Park PO","district":"WEST","state":"DELHI","lat":28.602626,"lon":77.089702,"fullAddress":"Durga Park PO, WEST, DELHI, 110043","country":"IN","stateCode":"DL"},{"pincode":"110058","office":"Janakpuri B 1 S.O","district":"WEST","state":"DELHI","lat":28.630065,"lon":77.091207,"fullAddress":"Janakpuri B 1 S.O, WEST, DELHI, 110058","country":"IN","stateCode":"DL"},{"pincode":"110018","office":"Chand Nagar S.O","district":"WEST","state":"DELHI","lat":28.6463611,"lon":77.0990556,"fullAddress":"Chand Nagar S.O, WEST, DELHI, 110018","country":"IN","stateCode":"DL"},{"pincode":"110003","office":"Aliganj SO South Delhi","district":"South East","state":"DELHI","lat":28.59,"lon":77.22,"fullAddress":"Aliganj SO South Delhi, South East, DELHI, 110003","country":"IN","stateCode":"DL"},{"pincode":"110019","office":"Nehru Place SO","district":"South East","state":"DELHI","lat":28.5498056,"lon":77.3210556,"fullAddress":"Nehru Place SO, South East, DELHI, 110019","country":"IN","stateCode":"DL"},{"pincode":"110093","office":"Housing Complex Loni Road SO","district":"NORTH EAST","state":"DELHI","lat":28.69525,"lon":77.2953333,"fullAddress":"Housing Complex Loni Road SO, NORTH EAST, DELHI, 110093","country":"IN","stateCode":"DL"},{"pincode":"110087","office":"Peeragarhi B.O","district":"WEST","state":"DELHI","lat":28.679745,"lon":77.092689,"fullAddress":"Peeragarhi B.O, WEST, DELHI, 110087","country":"IN","stateCode":"DL"},{"pincode":"110044","office":"Lal Kuan BO","district":"SOUTH","state":"DELHI","lat":28.53,"lon":77.21,"fullAddress":"Lal Kuan BO, SOUTH, DELHI, 110044","country":"IN","stateCode":"DL"},{"pincode":"110088","office":"Shalamar BO","district":"NORTH","state":"DELHI","lat":28.6933611,"lon":77.1713889,"fullAddress":"Shalamar BO, NORTH, DELHI, 110088","country":"IN","stateCode":"DL"},{"pincode":"110091","office":"Himmatpuri SO","district":"EAST","state":"DELHI","lat":28.6053889,"lon":77.3073333,"fullAddress":"Himmatpuri SO, EAST, DELHI, 110091","country":"IN","stateCode":"DL"},{"pincode":"110015","office":"Zakhira S.O","district":"WEST","state":"DELHI","lat":28.6659722,"lon":77.1647778,"fullAddress":"Zakhira S.O, WEST, DELHI, 110015","country":"IN","stateCode":"DL"},{"pincode":"110096","office":"Mayur Vihar PhIII SO","district":"EAST","state":"DELHI","lat":28.6086389,"lon":77.3364167,"fullAddress":"Mayur Vihar PhIII SO, EAST, DELHI, 110096","country":"IN","stateCode":"DL"},{"pincode":"110017","office":"Malviya Nagar SO South Delhi","district":"SOUTH","state":"DELHI","lat":28.537654,"lon":77.214682,"fullAddress":"Malviya Nagar SO South Delhi, SOUTH, DELHI, 110017","country":"IN","stateCode":"DL"},{"pincode":"110006","office":"Delhi GPO","district":"NORTH","state":"DELHI","lat":28.662197,"lon":77.235397,"fullAddress":"Delhi GPO, NORTH, DELHI, 110006","country":"IN","stateCode":"DL"},{"pincode":"110002","office":"Indraprastha HO","district":"CENTRAL","state":"DELHI","lat":28.6317778,"lon":77.24025,"fullAddress":"Indraprastha HO, CENTRAL, DELHI, 110002","country":"IN","stateCode":"DL"},{"pincode":"110003","office":"Lodi Road HO","district":"SOUTH","state":"DELHI","lat":28.5896111,"lon":77.2191944,"fullAddress":"Lodi Road HO, SOUTH, DELHI, 110003","country":"IN","stateCode":"DL"},{"pincode":"110082","office":"Khera Kalan SO","district":"NORTH","state":"DELHI","lat":28.7721667,"lon":77.119,"fullAddress":"Khera Kalan SO, NORTH, DELHI, 110082","country":"IN","stateCode":"DL"},{"pincode":"110074","office":"Chattarpur SO","district":"SOUTH","state":"DELHI","lat":28.496388,"lon":77.184166,"fullAddress":"Chattarpur SO, SOUTH, DELHI, 110074","country":"IN","stateCode":"DL"},{"pincode":"110015","office":"Karam Pura S.O","district":"WEST","state":"DELHI","lat":28.6645556,"lon":77.0786389,"fullAddress":"Karam Pura S.O, WEST, DELHI, 110015","country":"IN","stateCode":"DL"},{"pincode":"110039","office":"Pooth Khurd BO","district":"NORTH","state":"DELHI","lat":28.7996944,"lon":77.0380555,"fullAddress":"Pooth Khurd BO, NORTH, DELHI, 110039","country":"IN","stateCode":"DL"},{"pincode":"110030","office":"T B Hospital SO","district":"SOUTH","state":"DELHI","lat":28.5303611,"lon":77.1889722,"fullAddress":"T B Hospital SO, SOUTH, DELHI, 110030","country":"IN","stateCode":"DL"},{"pincode":"110030","office":"Sultanpur BO","district":"SOUTH","state":"DELHI","lat":28.5176111,"lon":77.1793611,"fullAddress":"Sultanpur BO, SOUTH, DELHI, 110030","country":"IN","stateCode":"DL"},{"pincode":"110084","office":"Nathupura Village SO","district":"CENTRAL","state":"DELHI","lat":28.7691574,"lon":77.17729,"fullAddress":"Nathupura Village SO, CENTRAL, DELHI, 110084","country":"IN","stateCode":"DL"},{"pincode":"110040","office":"Singhu BO","district":"NORTH","state":"DELHI","lat":28.8508055,"lon":77.0880555,"fullAddress":"Singhu BO, NORTH, DELHI, 110040","country":"IN","stateCode":"DL"},{"pincode":"110042","office":"Siraspur BO","district":"NORTH","state":"DELHI","lat":28.7441111,"lon":77.145,"fullAddress":"Siraspur BO, NORTH, DELHI, 110042","country":"IN","stateCode":"DL"},{"pincode":"110042","office":"Mukundpur Village","district":"NORTH","state":"DELHI","lat":28.744111,"lon":77.145,"fullAddress":"Mukundpur Village, NORTH, DELHI, 110042","country":"IN","stateCode":"DL"},{"pincode":"110086","office":"Begumpur BO","district":"NORTH WEST","state":"DELHI","lat":28.7016111,"lon":77.0797222,"fullAddress":"Begumpur BO, NORTH WEST, DELHI, 110086","country":"IN","stateCode":"DL"},{"pincode":"110075","office":"Amberhai B.O","district":"SOUTH WEST","state":"DELHI","lat":28.578231,"lon":77.04961,"fullAddress":"Amberhai B.O, SOUTH WEST, DELHI, 110075","country":"IN","stateCode":"DL"},{"pincode":"110073","office":"Ghuman Hera B.O","district":"SOUTH WEST","state":"DELHI","lat":28.531999,"lon":76.923973,"fullAddress":"Ghuman Hera B.O, SOUTH WEST, DELHI, 110073","country":"IN","stateCode":"DL"},{"pincode":"110023","office":"Kidwai Nagar West SO","district":"NEW DELHI","state":"DELHI","lat":28.5712778,"lon":77.2051667,"fullAddress":"Kidwai Nagar West SO, NEW DELHI, DELHI, 110023","country":"IN","stateCode":"DL"},{"pincode":"110065","office":"East Of Kailash SO","district":"South East","state":"DELHI","lat":28.5579444,"lon":77.2459722,"fullAddress":"East Of Kailash SO, South East, DELHI, 110065","country":"IN","stateCode":"DL"},{"pincode":"110033","office":"Bhalaswa BO","district":"NORTH","state":"DELHI","lat":28.72775,"lon":77.1636111,"fullAddress":"Bhalaswa BO, NORTH, DELHI, 110033","country":"IN","stateCode":"DL"},{"pincode":"110031","office":"Geeta Colony SO","district":"SHAHDARA","state":"DELHI","lat":28.653,"lon":77.2741667,"fullAddress":"Geeta Colony SO, SHAHDARA, DELHI, 110031","country":"IN","stateCode":"DL"},{"pincode":"110085","office":"Rohini Courts SO","district":"NORTH WEST","state":"DELHI","lat":28.70775,"lon":77.132,"fullAddress":"Rohini Courts SO, NORTH WEST, DELHI, 110085","country":"IN","stateCode":"DL"},{"pincode":"110030","office":"Ghitorni BO","district":"SOUTH","state":"DELHI","lat":28.5176111,"lon":77.1793611,"fullAddress":"Ghitorni BO, SOUTH, DELHI, 110030","country":"IN","stateCode":"DL"},{"pincode":"110034","office":"Rani Bagh SO","district":"NORTH WEST","state":"DELHI","lat":28.68875,"lon":77.1321111,"fullAddress":"Rani Bagh SO, NORTH WEST, DELHI, 110034","country":"IN","stateCode":"DL"},{"pincode":"110043","office":"Mitraon B.O","district":"WEST","state":"DELHI","lat":28.605614,"lon":76.944141,"fullAddress":"Mitraon B.O, WEST, DELHI, 110043","country":"IN","stateCode":"DL"},{"pincode":"110010","office":"CVD SO","district":"NEW DELHI","state":"DELHI","lat":28.5988889,"lon":77.1085833,"fullAddress":"CVD SO, NEW DELHI, DELHI, 110010","country":"IN","stateCode":"DL"},{"pincode":"110073","office":"Mundela Kalan B.O","district":"SOUTH WEST","state":"DELHI","lat":28.609773,"lon":76.893434,"fullAddress":"Mundela Kalan B.O, SOUTH WEST, DELHI, 110073","country":"IN","stateCode":"DL"},{"pincode":"110021","office":"South Delhi Campus SO","district":"NEW DELHI","state":"DELHI","lat":28.5829722,"lon":77.1615,"fullAddress":"South Delhi Campus SO, NEW DELHI, DELHI, 110021","country":"IN","stateCode":"DL"},{"pincode":"110047","office":"Aya Nagar S.O","district":"SOUTH","state":"DELHI","lat":28.4759,"lon":77.13153,"fullAddress":"Aya Nagar S.O, SOUTH, DELHI, 110047","country":"IN","stateCode":"DL"},{"pincode":"110074","office":"Fatehpur Beri S.O","district":"SOUTH","state":"DELHI","lat":28.50842,"lon":77.20918,"fullAddress":"Fatehpur Beri S.O, SOUTH, DELHI, 110074","country":"IN","stateCode":"DL"},{"pincode":"110095","office":"GTB Hospital SO","district":"SHAHDARA","state":"DELHI","lat":28.6888056,"lon":77.3076944,"fullAddress":"GTB Hospital SO, SHAHDARA, DELHI, 110095","country":"IN","stateCode":"DL"},{"pincode":"110016","office":"Green Park Market SO","district":"SOUTH","state":"DELHI","lat":28.5558611,"lon":77.2021389,"fullAddress":"Green Park Market SO, SOUTH, DELHI, 110016","country":"IN","stateCode":"DL"},{"pincode":"110084","office":"Jharoda Majraa BO","district":"NORTH","state":"DELHI","lat":28.7572222,"lon":77.1977777,"fullAddress":"Jharoda Majraa BO, NORTH, DELHI, 110084","country":"IN","stateCode":"DL"},{"pincode":"110090","office":"Sonia Vihar SO","district":"NORTH EAST","state":"DELHI","lat":28.7262778,"lon":77.2476944,"fullAddress":"Sonia Vihar SO, NORTH EAST, DELHI, 110090","country":"IN","stateCode":"DL"},{"pincode":"110075","office":"District Court Complex Dwarka S.O","district":"SOUTH WEST","state":"DELHI","lat":28.580691,"lon":77.059203,"fullAddress":"District Court Complex Dwarka S.O, SOUTH WEST, DELHI, 110075","country":"IN","stateCode":"DL"},{"pincode":"110014","office":"Jungpura SO","district":"SOUTH","state":"DELHI","lat":28.5838611,"lon":77.2431944,"fullAddress":"Jungpura SO, SOUTH, DELHI, 110014","country":"IN","stateCode":"DL"},{"pincode":"110033","office":"NSMandi SO","district":"NORTH","state":"DELHI","lat":28.7126944,"lon":77.1733333,"fullAddress":"NSMandi SO, NORTH, DELHI, 110033","country":"IN","stateCode":"DL"},{"pincode":"110031","office":"Kailash Nagar SO","district":"SHAHDARA","state":"DELHI","lat":28.6646111,"lon":77.2593611,"fullAddress":"Kailash Nagar SO, SHAHDARA, DELHI, 110031","country":"IN","stateCode":"DL"},{"pincode":"110092","office":"Laxmi Nagar SO East Delhi","district":"EAST","state":"DELHI","lat":28.6921111,"lon":77.3042222,"fullAddress":"Laxmi Nagar SO East Delhi, EAST, DELHI, 110092","country":"IN","stateCode":"DL"},{"pincode":"110064","office":"Hari Nagar Dadb Block S.O","district":"WEST","state":"DELHI","lat":28.6234444,"lon":77.1076111,"fullAddress":"Hari Nagar Dadb Block S.O, WEST, DELHI, 110064","country":"IN","stateCode":"DL"},{"pincode":"110031","office":"Shastri Nagar SO East Delhi","district":"EAST","state":"DELHI","lat":28.69225,"lon":77.2742222,"fullAddress":"Shastri Nagar SO East Delhi, EAST, DELHI, 110031","country":"IN","stateCode":"DL"}]