[{"pincode":"795006","office":"Panglian B.O","district":"PHERZAWL","state":"MANIPUR","lat":24.351319,"lon":93.541084,"fullAddress":"Panglian B.O, PHERZAWL, MANIPUR, 795006","country":"IN","stateCode":"MN"},{"pincode":"795127","office":"Lamphou Charu","district":"CHANDEL","state":"MANIPUR","lat":24.265434,"lon":94.007525,"fullAddress":"Lamphou Charu, CHANDEL, MANIPUR, 795127","country":"IN","stateCode":"MN"},{"pincode":"795004","office":"Lamphelpat S.O","district":"IMPHAL WEST","state":"MANIPUR","lat":24.81855556,"lon":93.92566667,"fullAddress":"Lamphelpat S.O, IMPHAL WEST, MANIPUR, 795004","country":"IN","stateCode":"MN"},{"pincode":"795132","office":"Uchiwa Wangban B.O","district":"KAKCHING","state":"MANIPUR","lat":24.6017214,"lon":93.9077217,"fullAddress":"Uchiwa Wangban B.O, KAKCHING, MANIPUR, 795132","country":"IN","stateCode":"MN"},{"pincode":"795113","office":"Konthoujam B.O","district":"IMPHAL WEST","state":"MANIPUR","lat":24.75768,"lon":93.89598,"fullAddress":"Konthoujam B.O, IMPHAL WEST, MANIPUR, 795113","country":"IN","stateCode":"MN"},{"pincode":"795147","office":"Sempat Gangte","district":"NONEY","state":"MANIPUR","lat":24.582761,"lon":93.334595,"fullAddress":"Sempat Gangte, NONEY, MANIPUR, 795147","country":"IN","stateCode":"MN"},{"pincode":"795147","office":"Taikhang","district":"NONEY","state":"MANIPUR","lat":24.602993,"lon":93.357709,"fullAddress":"Taikhang, NONEY, MANIPUR, 795147","country":"IN","stateCode":"MN"},{"pincode":"795130","office":"Heinoumakhong B.O","district":"THOUBAL","state":"MANIPUR","lat":24.706851,"lon":93.948104,"fullAddress":"Heinoumakhong B.O, THOUBAL, MANIPUR, 795130","country":"IN","stateCode":"MN"},{"pincode":"795006","office":"Singjawl B.O","district":"PHERZAWL","state":"MANIPUR","lat":24.092249,"lon":93.299266,"fullAddress":"Singjawl B.O, PHERZAWL, MANIPUR, 795006","country":"IN","stateCode":"MN"},{"pincode":"795134","office":"Manamayang B.O","district":"IMPHAL WEST","state":"MANIPUR","lat":24.7347746,"lon":93.7764487,"fullAddress":"Manamayang B.O, IMPHAL WEST, MANIPUR, 795134","country":"IN","stateCode":"MN"},{"pincode":"795103","office":"Keirak B.O","district":"THOUBAL","state":"MANIPUR","lat":24.512905,"lon":93.957112,"fullAddress":"Keirak B.O, THOUBAL, MANIPUR, 795103","country":"IN","stateCode":"MN"},{"pincode":"795114","office":"Satang B.O","district":"IMPHAL EAST","state":"MANIPUR","lat":24.972248,"lon":94.11556,"fullAddress":"Satang B.O, IMPHAL EAST, MANIPUR, 795114","country":"IN","stateCode":"MN"},{"pincode":"795145","office":"Kongpat Khunou B.O","district":"KAMJONG","state":"MANIPUR","lat":24.87569,"lon":93.854202,"fullAddress":"Kongpat Khunou B.O, KAMJONG, MANIPUR, 795145","country":"IN","stateCode":"MN"},{"pincode":"795142","office":"Sirarakhong B.O","district":"UKHRUL","state":"MANIPUR","lat":25.081488,"lon":94.238532,"fullAddress":"Sirarakhong B.O, UKHRUL, MANIPUR, 795142","country":"IN","stateCode":"MN"},{"pincode":"795103","office":"Kakching S.O","district":"KAKCHING","state":"MANIPUR","lat":24.29,"lon":93.5857,"fullAddress":"Kakching S.O, KAKCHING, MANIPUR, 795103","country":"IN","stateCode":"MN"},{"pincode":"795116","office":"Jakurdhar B.O","district":"JIRIBAM","state":"MANIPUR","lat":24.615823,"lon":93.089372,"fullAddress":"Jakurdhar B.O, JIRIBAM, MANIPUR, 795116","country":"IN","stateCode":"MN"},{"pincode":"795145","office":"Yentem","district":"IMPHAL EAST","state":"MANIPUR","lat":24.969165,"lon":94.432084,"fullAddress":"Yentem, IMPHAL EAST, MANIPUR, 795145","country":"IN","stateCode":"MN"},{"pincode":"795118","office":"Makeng Ngarolu B.O","district":"KANGPOKPI","state":"MANIPUR","lat":25.042357,"lon":94.016779,"fullAddress":"Makeng Ngarolu B.O, KANGPOKPI, MANIPUR, 795118","country":"IN","stateCode":"MN"},{"pincode":"795113","office":"Ngairangbam B.O","district":"IMPHAL WEST","state":"MANIPUR","lat":24.7887,"lon":93.8286,"fullAddress":"Ngairangbam B.O, IMPHAL WEST, MANIPUR, 795113","country":"IN","stateCode":"MN"},{"pincode":"795009","office":"Yumnam Huidrom B.O.","district":"IMPHAL WEST","state":"MANIPUR","lat":24.651465,"lon":93.89814,"fullAddress":"Yumnam Huidrom B.O., IMPHAL WEST, MANIPUR, 795009","country":"IN","stateCode":"MN"},{"pincode":"795150","office":"Mao S.O","district":"SENAPATI","state":"MANIPUR","lat":25.325855,"lon":94.12465,"fullAddress":"Mao S.O, SENAPATI, MANIPUR, 795150","country":"IN","stateCode":"MN"},{"pincode":"795003","office":"Langthabal B.O","district":"IMPHAL WEST","state":"MANIPUR","lat":24.751875,"lon":93.915869,"fullAddress":"Langthabal B.O, IMPHAL WEST, MANIPUR, 795003","country":"IN","stateCode":"MN"},{"pincode":"795126","office":"Lamdangmei B.O","district":"KANGPOKPI","state":"MANIPUR","lat":24.7186148,"lon":93.6330884,"fullAddress":"Lamdangmei B.O, KANGPOKPI, MANIPUR, 795126","country":"IN","stateCode":"MN"},{"pincode":"795116","office":"Borobekra B.O","district":"JIRIBAM","state":"MANIPUR","lat":24.633285,"lon":93.089603,"fullAddress":"Borobekra B.O, JIRIBAM, MANIPUR, 795116","country":"IN","stateCode":"MN"},{"pincode":"795103","office":"Mairembam B.O","district":"KAKCHING","state":"MANIPUR","lat":24.501003,"lon":93.77409,"fullAddress":"Mairembam B.O, KAKCHING, MANIPUR, 795103","country":"IN","stateCode":"MN"},{"pincode":"795127","office":"Chandel S.O","district":"CHANDEL","state":"MANIPUR","lat":24.078468,"lon":93.999099,"fullAddress":"Chandel S.O, CHANDEL, MANIPUR, 795127","country":"IN","stateCode":"MN"},{"pincode":"795128","office":"Thangshi B.O","district":"CHURACHANDPUR","state":"MANIPUR","lat":24.458118,"lon":93.644429,"fullAddress":"Thangshi B.O, CHURACHANDPUR, MANIPUR, 795128","country":"IN","stateCode":"MN"},{"pincode":"795125","office":"Chaiton B.O","district":"TAMENGLONG","state":"MANIPUR","lat":24.99672,"lon":93.48071,"fullAddress":"Chaiton B.O, TAMENGLONG, MANIPUR, 795125","country":"IN","stateCode":"MN"},{"pincode":"795008","office":"Keirao Wangkhem B.O","district":"IMPHAL EAST","state":"MANIPUR","lat":24.706807,"lon":93.988377,"fullAddress":"Keirao Wangkhem B.O, IMPHAL EAST, MANIPUR, 795008","country":"IN","stateCode":"MN"},{"pincode":"795138","office":"Thoubal S.O","district":"THOUBAL","state":"MANIPUR","lat":24.64297222,"lon":93.99838889,"fullAddress":"Thoubal S.O, THOUBAL, MANIPUR, 795138","country":"IN","stateCode":"MN"},{"pincode":"795147","office":"Kambiron B.O","district":"NONEY","state":"MANIPUR","lat":24.727286,"lon":93.372702,"fullAddress":"Kambiron B.O, NONEY, MANIPUR, 795147","country":"IN","stateCode":"MN"},{"pincode":"795007","office":"Thingba Khullen B.O","district":"SENAPATI","state":"MANIPUR","lat":25.341311,"lon":94.169425,"fullAddress":"Thingba Khullen B.O, SENAPATI, MANIPUR, 795007","country":"IN","stateCode":"MN"},{"pincode":"795127","office":"Khongjon","district":"CHANDEL","state":"MANIPUR","lat":24.271011,"lon":94.077963,"fullAddress":"Khongjon, CHANDEL, MANIPUR, 795127","country":"IN","stateCode":"MN"},{"pincode":"795125","office":"Kasanlong B.O","district":"TAMENGLONG","state":"MANIPUR","lat":25.227475,"lon":93.798025,"fullAddress":"Kasanlong B.O, TAMENGLONG, MANIPUR, 795125","country":"IN","stateCode":"MN"},{"pincode":"795138","office":"Thoubal Leisangthem B.O","district":"THOUBAL","state":"MANIPUR","lat":24.644924,"lon":93.99929,"fullAddress":"Thoubal Leisangthem B.O, THOUBAL, MANIPUR, 795138","country":"IN","stateCode":"MN"},{"pincode":"795102","office":"Hengshi","district":"CHANDEL","state":"MANIPUR","lat":24.044871,"lon":93.987895,"fullAddress":"Hengshi, CHANDEL, MANIPUR, 795102","country":"IN","stateCode":"MN"},{"pincode":"795122","office":"Kheljang B.O","district":"KANGPOKPI","state":"MANIPUR","lat":25.078012,"lon":93.918611,"fullAddress":"Kheljang B.O, KANGPOKPI, MANIPUR, 795122","country":"IN","stateCode":"MN"},{"pincode":"795145","office":"K. Ashang Khullen","district":"IMPHAL EAST","state":"MANIPUR","lat":24.563797,"lon":94.447296,"fullAddress":"K. Ashang Khullen, IMPHAL EAST, MANIPUR, 795145","country":"IN","stateCode":"MN"},{"pincode":"795146","office":"Christan Centre Haochong B.O","district":"NONEY","state":"MANIPUR","lat":24.77335,"lon":93.8577,"fullAddress":"Christan Centre Haochong B.O, NONEY, MANIPUR, 795146","country":"IN","stateCode":"MN"},{"pincode":"795114","office":"Pukhao Ahallup B.O","district":"IMPHAL EAST","state":"MANIPUR","lat":24.953809,"lon":94.016126,"fullAddress":"Pukhao Ahallup B.O, IMPHAL EAST, MANIPUR, 795114","country":"IN","stateCode":"MN"},{"pincode":"795127","office":"Mittong B.O","district":"CHANDEL","state":"MANIPUR","lat":24.357893,"lon":94.045242,"fullAddress":"Mittong B.O, CHANDEL, MANIPUR, 795127","country":"IN","stateCode":"MN"},{"pincode":"795104","office":"Kaibi B.O","district":"SENAPATI","state":"MANIPUR","lat":25.468688,"lon":94.16279,"fullAddress":"Kaibi B.O, SENAPATI, MANIPUR, 795104","country":"IN","stateCode":"MN"},{"pincode":"795145","office":"Chassad B.O","district":"KAMJONG","state":"MANIPUR","lat":24.99458,"lon":94.429274,"fullAddress":"Chassad B.O, KAMJONG, MANIPUR, 795145","country":"IN","stateCode":"MN"},{"pincode":"795141","office":"Taningjam","district":"TAMENGLONG","state":"MANIPUR","lat":25.125232,"lon":93.477318,"fullAddress":"Taningjam, TAMENGLONG, MANIPUR, 795141","country":"IN","stateCode":"MN"},{"pincode":"795008","office":"Kongba Bazar B.O","district":"IMPHAL EAST","state":"MANIPUR","lat":24.785304,"lon":93.962513,"fullAddress":"Kongba Bazar B.O, IMPHAL EAST, MANIPUR, 795008","country":"IN","stateCode":"MN"},{"pincode":"795159","office":"Thingra B.O","district":"NONEY","state":"MANIPUR","lat":24.984592,"lon":93.61166,"fullAddress":"Thingra B.O, NONEY, MANIPUR, 795159","country":"IN","stateCode":"MN"},{"pincode":"795145","office":"Sorde B.O","district":"KAMJONG","state":"MANIPUR","lat":24.718091,"lon":94.356711,"fullAddress":"Sorde B.O, KAMJONG, MANIPUR, 795145","country":"IN","stateCode":"MN"},{"pincode":"795008","office":"Keirao Makting B.O","district":"IMPHAL EAST","state":"MANIPUR","lat":24.732526,"lon":93.973654,"fullAddress":"Keirao Makting B.O, IMPHAL EAST, MANIPUR, 795008","country":"IN","stateCode":"MN"},{"pincode":"795140","office":"Tulihal S.O","district":"IMPHAL WEST","state":"MANIPUR","lat":24.816532,"lon":93.952827,"fullAddress":"Tulihal S.O, IMPHAL WEST, MANIPUR, 795140","country":"IN","stateCode":"MN"},{"pincode":"795113","office":"Kongakhul B.O","district":"KANGPOKPI","state":"MANIPUR","lat":24.6432,"lon":93.6703,"fullAddress":"Kongakhul B.O, KANGPOKPI, MANIPUR, 795113","country":"IN","stateCode":"MN"},{"pincode":"795002","office":"Khonghampat B.O","district":"IMPHAL WEST","state":"MANIPUR","lat":24.888295,"lon":93.889964,"fullAddress":"Khonghampat B.O, IMPHAL WEST, MANIPUR, 795002","country":"IN","stateCode":"MN"},{"pincode":"795145","office":"Khambi","district":"IMPHAL EAST","state":"MANIPUR","lat":24.787523,"lon":94.356593,"fullAddress":"Khambi, IMPHAL EAST, MANIPUR, 795145","country":"IN","stateCode":"MN"},{"pincode":"795011","office":"Phubala B.O","district":"BISHNUPUR","state":"MANIPUR","lat":24.5351184,"lon":93.7551946,"fullAddress":"Phubala B.O, BISHNUPUR, MANIPUR, 795011","country":"IN","stateCode":"MN"},{"pincode":"795145","office":"Mawai","district":"IMPHAL EAST","state":"MANIPUR","lat":24.660677,"lon":94.322078,"fullAddress":"Mawai, IMPHAL EAST, MANIPUR, 795145","country":"IN","stateCode":"MN"},{"pincode":"795144","office":"Thiwa B.O","district":"SENAPATI","state":"MANIPUR","lat":25.294634,"lon":94.272504,"fullAddress":"Thiwa B.O, SENAPATI, MANIPUR, 795144","country":"IN","stateCode":"MN"},{"pincode":"795128","office":"Kamkeilon B.O","district":"CHURACHANDPUR","state":"MANIPUR","lat":24.49146,"lon":93.48114,"fullAddress":"Kamkeilon B.O, CHURACHANDPUR, MANIPUR, 795128","country":"IN","stateCode":"MN"},{"pincode":"795138","office":"Kiyam Shiphai B.O","district":"THOUBAL","state":"MANIPUR","lat":24.660949,"lon":93.976685,"fullAddress":"Kiyam Shiphai B.O, THOUBAL, MANIPUR, 795138","country":"IN","stateCode":"MN"},{"pincode":"795143","office":"Hanship B.O","district":"PHERZAWL","state":"MANIPUR","lat":24.158765,"lon":93.211837,"fullAddress":"Hanship B.O, PHERZAWL, MANIPUR, 795143","country":"IN","stateCode":"MN"},{"pincode":"795003","office":"Kunja (P) B.O","district":"IMPHAL WEST","state":"MANIPUR","lat":24.714009,"lon":93.90342,"fullAddress":"Kunja (P) B.O, IMPHAL WEST, MANIPUR, 795003","country":"IN","stateCode":"MN"},{"pincode":"795130","office":"Arapti B.O","district":"IMPHAL EAST","state":"MANIPUR","lat":24.70964,"lon":93.954493,"fullAddress":"Arapti B.O, IMPHAL EAST, MANIPUR, 795130","country":"IN","stateCode":"MN"},{"pincode":"795002","office":"Karakhul B.O","district":"KANGPOKPI","state":"MANIPUR","lat":24.840769,"lon":93.807296,"fullAddress":"Karakhul B.O, KANGPOKPI, MANIPUR, 795002","country":"IN","stateCode":"MN"},{"pincode":"795118","office":"Zelengphai B.O","district":"KANGPOKPI","state":"MANIPUR","lat":25.058071,"lon":94.060773,"fullAddress":"Zelengphai B.O, KANGPOKPI, MANIPUR, 795118","country":"IN","stateCode":"MN"},{"pincode":"795116","office":"Chingmun B.O","district":"JIRIBAM","state":"MANIPUR","lat":24.70242,"lon":93.172341,"fullAddress":"Chingmun B.O, JIRIBAM, MANIPUR, 795116","country":"IN","stateCode":"MN"},{"pincode":"795118","office":"Ichaigojang B.O","district":"KANGPOKPI","state":"MANIPUR","lat":25.082958,"lon":94.011048,"fullAddress":"Ichaigojang B.O, KANGPOKPI, MANIPUR, 795118","country":"IN","stateCode":"MN"},{"pincode":"795102","office":"Molpibung","district":"CHANDEL","state":"MANIPUR","lat":24.115551,"lon":94.157082,"fullAddress":"Molpibung, CHANDEL, MANIPUR, 795102","country":"IN","stateCode":"MN"},{"pincode":"795132","office":"Sekmaijin Khunou Litan Makhong B.O","district":"KAKCHING","state":"MANIPUR","lat":24.5516425,"lon":93.8611123,"fullAddress":"Sekmaijin Khunou Litan Makhong B.O, KAKCHING, MANIPUR, 795132","country":"IN","stateCode":"MN"},{"pincode":"795113","office":"Maklang Bazar B.O","district":"IMPHAL WEST","state":"MANIPUR","lat":24.8085,"lon":93.8249,"fullAddress":"Maklang Bazar B.O, IMPHAL WEST, MANIPUR, 795113","country":"IN","stateCode":"MN"},{"pincode":"795145","office":"Thawai B.O","district":"KAMJONG","state":"MANIPUR","lat":24.942707,"lon":94.17581,"fullAddress":"Thawai B.O, KAMJONG, MANIPUR, 795145","country":"IN","stateCode":"MN"},{"pincode":"795135","office":"Lamlong Khunou B.O","district":"TENGNOUPAL","state":"MANIPUR","lat":24.3389,"lon":94.00395,"fullAddress":"Lamlong Khunou B.O, TENGNOUPAL, MANIPUR, 795135","country":"IN","stateCode":"MN"},{"pincode":"795143","office":"Tualbung B.O","district":"PHERZAWL","state":"MANIPUR","lat":24.337356,"lon":93.1683659,"fullAddress":"Tualbung B.O, PHERZAWL, MANIPUR, 795143","country":"IN","stateCode":"MN"},{"pincode":"795147","office":"Nungnang B.O","district":"NONEY","state":"MANIPUR","lat":24.76421,"lon":93.86068,"fullAddress":"Nungnang B.O, NONEY, MANIPUR, 795147","country":"IN","stateCode":"MN"},{"pincode":"795115","office":"Keimai B.O","district":"JIRIBAM","state":"MANIPUR","lat":24.80232,"lon":93.11683,"fullAddress":"Keimai B.O, JIRIBAM, MANIPUR, 795115","country":"IN","stateCode":"MN"},{"pincode":"795113","office":"Patsoi Part II B.O","district":"IMPHAL WEST","state":"MANIPUR","lat":24.75761,"lon":93.89591,"fullAddress":"Patsoi Part II B.O, IMPHAL WEST, MANIPUR, 795113","country":"IN","stateCode":"MN"},{"pincode":"795131","office":"T-minou B.O","district":"TENGNOUPAL","state":"MANIPUR","lat":24.348859,"lon":94.052218,"fullAddress":"T-minou B.O, TENGNOUPAL, MANIPUR, 795131","country":"IN","stateCode":"MN"},{"pincode":"795146","office":"Oktan B.O","district":"NONEY","state":"MANIPUR","lat":24.926069,"lon":93.670144,"fullAddress":"Oktan B.O, NONEY, MANIPUR, 795146","country":"IN","stateCode":"MN"},{"pincode":"795002","office":"Heingang B.O","district":"IMPHAL EAST","state":"MANIPUR","lat":24.840834,"lon":93.93863,"fullAddress":"Heingang B.O, IMPHAL EAST, MANIPUR, 795002","country":"IN","stateCode":"MN"},{"pincode":"795129","office":"Hengbung B.O","district":"KANGPOKPI","state":"MANIPUR","lat":25.223743,"lon":93.999804,"fullAddress":"Hengbung B.O, KANGPOKPI, MANIPUR, 795129","country":"IN","stateCode":"MN"},{"pincode":"795141","office":"Tharon B.O","district":"TAMENGLONG","state":"MANIPUR","lat":25.01762,"lon":93.575546,"fullAddress":"Tharon B.O, TAMENGLONG, MANIPUR, 795141","country":"IN","stateCode":"MN"},{"pincode":"795116","office":"Tuitengmun B.O","district":"JIRIBAM","state":"MANIPUR","lat":24.654255,"lon":93.176885,"fullAddress":"Tuitengmun B.O, JIRIBAM, MANIPUR, 795116","country":"IN","stateCode":"MN"},{"pincode":"795128","office":"Kolhen B.O","district":"CHURACHANDPUR","state":"MANIPUR","lat":24.44088,"lon":93.49617,"fullAddress":"Kolhen B.O, CHURACHANDPUR, MANIPUR, 795128","country":"IN","stateCode":"MN"},{"pincode":"795124","office":"Tokpalamdan B.O","district":"CHURACHANDPUR","state":"MANIPUR","lat":24.5487332,"lon":93.637469,"fullAddress":"Tokpalamdan B.O, CHURACHANDPUR, MANIPUR, 795124","country":"IN","stateCode":"MN"},{"pincode":"795149","office":"Saram Panthong B.O","district":"KANGPOKPI","state":"MANIPUR","lat":24.680623,"lon":94.040439,"fullAddress":"Saram Panthong B.O, KANGPOKPI, MANIPUR, 795149","country":"IN","stateCode":"MN"},{"pincode":"795008","office":"Laiphrok Maring B.O","district":"IMPHAL EAST","state":"MANIPUR","lat":24.738052,"lon":93.999532,"fullAddress":"Laiphrok Maring B.O, IMPHAL EAST, MANIPUR, 795008","country":"IN","stateCode":"MN"},{"pincode":"795003","office":"Canchipur (TCD) B.O","district":"IMPHAL WEST","state":"MANIPUR","lat":24.794752,"lon":93.857891,"fullAddress":"Canchipur (TCD) B.O, IMPHAL WEST, MANIPUR, 795003","country":"IN","stateCode":"MN"},{"pincode":"795134","office":"Utlou B.O","district":"BISHNUPUR","state":"MANIPUR","lat":24.73379,"lon":93.857324,"fullAddress":"Utlou B.O, BISHNUPUR, MANIPUR, 795134","country":"IN","stateCode":"MN"},{"pincode":"795103","office":"Tokpaching B.O","district":"KAKCHING","state":"MANIPUR","lat":24.427141,"lon":93.884608,"fullAddress":"Tokpaching B.O, KAKCHING, MANIPUR, 795103","country":"IN","stateCode":"MN"},{"pincode":"795102","office":"T.Nampao","district":"CHANDEL","state":"MANIPUR","lat":24.167719,"lon":94.179841,"fullAddress":"T.Nampao, CHANDEL, MANIPUR, 795102","country":"IN","stateCode":"MN"},{"pincode":"795131","office":"Bongjoi B.O","district":"TENGNOUPAL","state":"MANIPUR","lat":24.313125,"lon":93.995369,"fullAddress":"Bongjoi B.O, TENGNOUPAL, MANIPUR, 795131","country":"IN","stateCode":"MN"},{"pincode":"795145","office":"Yangangpokpi B.O","district":"IMPHAL EAST","state":"MANIPUR","lat":24.910565,"lon":94.119978,"fullAddress":"Yangangpokpi B.O, IMPHAL EAST, MANIPUR, 795145","country":"IN","stateCode":"MN"},{"pincode":"795010","office":"Sawombung B.O","district":"IMPHAL EAST","state":"MANIPUR","lat":24.8707,"lon":94.0397,"fullAddress":"Sawombung B.O, IMPHAL EAST, MANIPUR, 795010","country":"IN","stateCode":"MN"},{"pincode":"795134","office":"Khabi B.O","district":"IMPHAL WEST","state":"MANIPUR","lat":24.747144,"lon":93.8378622,"fullAddress":"Khabi B.O, IMPHAL WEST, MANIPUR, 795134","country":"IN","stateCode":"MN"},{"pincode":"795131","office":"Yangoulen B.O","district":"TENGNOUPAL","state":"MANIPUR","lat":24.251709,"lon":93.898632,"fullAddress":"Yangoulen B.O, TENGNOUPAL, MANIPUR, 795131","country":"IN","stateCode":"MN"},{"pincode":"795142","office":"Huining B.O","district":"UKHRUL","state":"MANIPUR","lat":25.172922,"lon":94.320709,"fullAddress":"Huining B.O, UKHRUL, MANIPUR, 795142","country":"IN","stateCode":"MN"},{"pincode":"795125","office":"New Lambala B.O","district":"TAMENGLONG","state":"MANIPUR","lat":25.071688,"lon":93.61009,"fullAddress":"New Lambala B.O, TAMENGLONG, MANIPUR, 795125","country":"IN","stateCode":"MN"},{"pincode":"795101","office":"Sehao B.O","district":"CHANDEL","state":"MANIPUR","lat":24.036433,"lon":94.105734,"fullAddress":"Sehao B.O, CHANDEL, MANIPUR, 795101","country":"IN","stateCode":"MN"},{"pincode":"795139","office":"Sialbu B.O","district":"CHURACHANDPUR","state":"MANIPUR","lat":24.184065,"lon":93.457528,"fullAddress":"Sialbu B.O, CHURACHANDPUR, MANIPUR, 795139","country":"IN","stateCode":"MN"},{"pincode":"795139","office":"Suangdoh B.O","district":"CHURACHANDPUR","state":"MANIPUR","lat":24.086314,"lon":93.483674,"fullAddress":"Suangdoh B.O, CHURACHANDPUR, MANIPUR, 795139","country":"IN","stateCode":"MN"},{"pincode":"795139","office":"Vokbual B.O","district":"CHURACHANDPUR","state":"MANIPUR","lat":24.24039,"lon":93.562646,"fullAddress":"Vokbual B.O, CHURACHANDPUR, MANIPUR, 795139","country":"IN","stateCode":"MN"},{"pincode":"795006","office":"Leison B.O","district":"PHERZAWL","state":"MANIPUR","lat":25.168684,"lon":94.208733,"fullAddress":"Leison B.O, PHERZAWL, MANIPUR, 795006","country":"IN","stateCode":"MN"},{"pincode":"795103","office":"Elangkhangpokpi B.O","district":"THOUBAL","state":"MANIPUR","lat":24.60988,"lon":94.055252,"fullAddress":"Elangkhangpokpi B.O, THOUBAL, MANIPUR, 795103","country":"IN","stateCode":"MN"},{"pincode":"795144","office":"Kachai B.O","district":"UKHRUL","state":"MANIPUR","lat":25.237949,"lon":94.279696,"fullAddress":"Kachai B.O, UKHRUL, MANIPUR, 795144","country":"IN","stateCode":"MN"},{"pincode":"795101","office":"Chairen B.O","district":"KAKCHING","state":"MANIPUR","lat":24.353807,"lon":93.852871,"fullAddress":"Chairen B.O, KAKCHING, MANIPUR, 795101","country":"IN","stateCode":"MN"},{"pincode":"795132","office":"Hayel Hangoon BO","district":"KAKCHING","state":"MANIPUR","lat":24.559206,"lon":93.901452,"fullAddress":"Hayel Hangoon BO, KAKCHING, MANIPUR, 795132","country":"IN","stateCode":"MN"},{"pincode":"795127","office":"Larong B.O","district":"CHANDEL","state":"MANIPUR","lat":24.45381,"lon":94.078773,"fullAddress":"Larong B.O, CHANDEL, MANIPUR, 795127","country":"IN","stateCode":"MN"},{"pincode":"795159","office":"Nungtek B.O","district":"NONEY","state":"MANIPUR","lat":24.854367,"lon":93.628782,"fullAddress":"Nungtek B.O, NONEY, MANIPUR, 795159","country":"IN","stateCode":"MN"},{"pincode":"795135","office":"Khunbi B.O","district":"CHANDEL","state":"MANIPUR","lat":24.605221,"lon":94.038413,"fullAddress":"Khunbi B.O, CHANDEL, MANIPUR, 795135","country":"IN","stateCode":"MN"},{"pincode":"795006","office":"Geljang B.O","district":"CHURACHANDPUR","state":"MANIPUR","lat":24.25804,"lon":93.670705,"fullAddress":"Geljang B.O, CHURACHANDPUR, MANIPUR, 795006","country":"IN","stateCode":"MN"},{"pincode":"795145","office":"Sanakeithel B.O","district":"UKHRUL","state":"MANIPUR","lat":25.035614,"lon":94.149176,"fullAddress":"Sanakeithel B.O, UKHRUL, MANIPUR, 795145","country":"IN","stateCode":"MN"},{"pincode":"795145","office":"T. Hundung Khullen","district":"IMPHAL EAST","state":"MANIPUR","lat":24.813204,"lon":94.210143,"fullAddress":"T. Hundung Khullen, IMPHAL EAST, MANIPUR, 795145","country":"IN","stateCode":"MN"},{"pincode":"795133","office":"Moirang S.O","district":"BISHNUPUR","state":"MANIPUR","lat":24.2959,"lon":93.46,"fullAddress":"Moirang S.O, BISHNUPUR, MANIPUR, 795133","country":"IN","stateCode":"MN"},{"pincode":"795136","office":"Sekmai S.O","district":"IMPHAL WEST","state":"MANIPUR","lat":24.816532,"lon":93.952827,"fullAddress":"Sekmai S.O, IMPHAL WEST, MANIPUR, 795136","country":"IN","stateCode":"MN"},{"pincode":"795118","office":"Pangjang B.O","district":"KANGPOKPI","state":"MANIPUR","lat":25.088627,"lon":94.047851,"fullAddress":"Pangjang B.O, KANGPOKPI, MANIPUR, 795118","country":"IN","stateCode":"MN"},{"pincode":"795126","office":"Khongbung B.O","district":"KANGPOKPI","state":"MANIPUR","lat":24.4009735,"lon":93.5885296,"fullAddress":"Khongbung B.O, KANGPOKPI, MANIPUR, 795126","country":"IN","stateCode":"MN"},{"pincode":"795008","office":"Kitnapanung B.O","district":"IMPHAL EAST","state":"MANIPUR","lat":24.763224,"lon":93.945621,"fullAddress":"Kitnapanung B.O, IMPHAL EAST, MANIPUR, 795008","country":"IN","stateCode":"MN"},{"pincode":"795003","office":"Ningombam B.O","district":"IMPHAL WEST","state":"MANIPUR","lat":24.743288,"lon":93.894226,"fullAddress":"Ningombam B.O, IMPHAL WEST, MANIPUR, 795003","country":"IN","stateCode":"MN"},{"pincode":"795133","office":"Khousabung B.O","district":"CHURACHANDPUR","state":"MANIPUR","lat":24.504492,"lon":93.72694,"fullAddress":"Khousabung B.O, CHURACHANDPUR, MANIPUR, 795133","country":"IN","stateCode":"MN"},{"pincode":"795141","office":"Tamenglong Khunjao B.O","district":"TAMENGLONG","state":"MANIPUR","lat":25.019058,"lon":93.486213,"fullAddress":"Tamenglong Khunjao B.O, TAMENGLONG, MANIPUR, 795141","country":"IN","stateCode":"MN"},{"pincode":"795141","office":"Thuilon B.O","district":"TAMENGLONG","state":"MANIPUR","lat":24.964108,"lon":93.56682,"fullAddress":"Thuilon B.O, TAMENGLONG, MANIPUR, 795141","country":"IN","stateCode":"MN"},{"pincode":"795141","office":"Njingning","district":"TAMENGLONG","state":"MANIPUR","lat":24.839623,"lon":93.305606,"fullAddress":"Njingning, TAMENGLONG, MANIPUR, 795141","country":"IN","stateCode":"MN"},{"pincode":"795143","office":"Pamjal B.O","district":"PHERZAWL","state":"MANIPUR","lat":24.2271,"lon":93.2005,"fullAddress":"Pamjal B.O, PHERZAWL, MANIPUR, 795143","country":"IN","stateCode":"MN"},{"pincode":"795006","office":"Senvon B.O","district":"PHERZAWL","state":"MANIPUR","lat":24.142023,"lon":93.047514,"fullAddress":"Senvon B.O, PHERZAWL, MANIPUR, 795006","country":"IN","stateCode":"MN"},{"pincode":"795104","office":"Phaibung Khullen B.O","district":"SENAPATI","state":"MANIPUR","lat":25.426895,"lon":94.333609,"fullAddress":"Phaibung Khullen B.O, SENAPATI, MANIPUR, 795104","country":"IN","stateCode":"MN"},{"pincode":"795145","office":"Lungphu B.O","district":"KAMJONG","state":"MANIPUR","lat":24.994586,"lon":94.429269,"fullAddress":"Lungphu B.O, KAMJONG, MANIPUR, 795145","country":"IN","stateCode":"MN"},{"pincode":"795103","office":"Mantak B.O","district":"KAKCHING","state":"MANIPUR","lat":24.532006,"lon":93.901377,"fullAddress":"Mantak B.O, KAKCHING, MANIPUR, 795103","country":"IN","stateCode":"MN"},{"pincode":"795142","office":"Ngaimu B.O","district":"UKHRUL","state":"MANIPUR","lat":25.145211,"lon":94.322826,"fullAddress":"Ngaimu B.O, UKHRUL, MANIPUR, 795142","country":"IN","stateCode":"MN"},{"pincode":"795132","office":"Laphupat B.O","district":"KAKCHING","state":"MANIPUR","lat":24.5000508,"lon":93.8724338,"fullAddress":"Laphupat B.O, KAKCHING, MANIPUR, 795132","country":"IN","stateCode":"MN"},{"pincode":"795125","office":"Illeng B.O","district":"TAMENGLONG","state":"MANIPUR","lat":24.709395,"lon":93.90921,"fullAddress":"Illeng B.O, TAMENGLONG, MANIPUR, 795125","country":"IN","stateCode":"MN"},{"pincode":"795117","office":"Tuitengphai B.O","district":"CHURACHANDPUR","state":"MANIPUR","lat":24.350011,"lon":93.699989,"fullAddress":"Tuitengphai B.O, CHURACHANDPUR, MANIPUR, 795117","country":"IN","stateCode":"MN"},{"pincode":"795139","office":"Hengtam B.O","district":"CHURACHANDPUR","state":"MANIPUR","lat":24.031709,"lon":93.570504,"fullAddress":"Hengtam B.O, CHURACHANDPUR, MANIPUR, 795139","country":"IN","stateCode":"MN"},{"pincode":"795145","office":"Kangoi","district":"IMPHAL EAST","state":"MANIPUR","lat":24.739839,"lon":94.248781,"fullAddress":"Kangoi, IMPHAL EAST, MANIPUR, 795145","country":"IN","stateCode":"MN"},{"pincode":"795131","office":"Molchamedbo B.O","district":"TENGNOUPAL","state":"MANIPUR","lat":23.984122,"lon":93.139258,"fullAddress":"Molchamedbo B.O, TENGNOUPAL, MANIPUR, 795131","country":"IN","stateCode":"MN"},{"pincode":"795009","office":"Samurou B.O","district":"IMPHAL WEST","state":"MANIPUR","lat":24.702208,"lon":93.90447,"fullAddress":"Samurou B.O, IMPHAL WEST, MANIPUR, 795009","country":"IN","stateCode":"MN"},{"pincode":"795138","office":"Poirou Khongjil B.O","district":"THOUBAL","state":"MANIPUR","lat":24.731883,"lon":93.80986,"fullAddress":"Poirou Khongjil B.O, THOUBAL, MANIPUR, 795138","country":"IN","stateCode":"MN"},{"pincode":"795149","office":"Kamuching B.O","district":"KANGPOKPI","state":"MANIPUR","lat":24.724218,"lon":94.119204,"fullAddress":"Kamuching B.O, KANGPOKPI, MANIPUR, 795149","country":"IN","stateCode":"MN"},{"pincode":"795135","office":"Khoibu B.O","district":"CHANDEL","state":"MANIPUR","lat":24.554872,"lon":94.180841,"fullAddress":"Khoibu B.O, CHANDEL, MANIPUR, 795135","country":"IN","stateCode":"MN"},{"pincode":"795149","office":"Lembakhul B.O","district":"KANGPOKPI","state":"MANIPUR","lat":24.687243,"lon":94.060443,"fullAddress":"Lembakhul B.O, KANGPOKPI, MANIPUR, 795149","country":"IN","stateCode":"MN"},{"pincode":"795149","office":"Ningthounai BO","district":"KANGPOKPI","state":"MANIPUR","lat":24.684422,"lon":94.059611,"fullAddress":"Ningthounai BO, KANGPOKPI, MANIPUR, 795149","country":"IN","stateCode":"MN"},{"pincode":"795130","office":"Chajing Pt II B.O","district":"IMPHAL WEST","state":"MANIPUR","lat":24.714939,"lon":93.929209,"fullAddress":"Chajing Pt II B.O, IMPHAL WEST, MANIPUR, 795130","country":"IN","stateCode":"MN"},{"pincode":"795103","office":"Langmeidong B.O","district":"KAKCHING","state":"MANIPUR","lat":24.38306,"lon":93.650712,"fullAddress":"Langmeidong B.O, KAKCHING, MANIPUR, 795103","country":"IN","stateCode":"MN"},{"pincode":"795103","office":"Arong Nongmaikhong B.O","district":"THOUBAL","state":"MANIPUR","lat":24.436317,"lon":93.850057,"fullAddress":"Arong Nongmaikhong B.O, THOUBAL, MANIPUR, 795103","country":"IN","stateCode":"MN"},{"pincode":"795141","office":"Thingou","district":"TAMENGLONG","state":"MANIPUR","lat":24.794846,"lon":93.384922,"fullAddress":"Thingou, TAMENGLONG, MANIPUR, 795141","country":"IN","stateCode":"MN"},{"pincode":"795126","office":"Thangal B.O","district":"KANGPOKPI","state":"MANIPUR","lat":24.7113805,"lon":93.5864207,"fullAddress":"Thangal B.O, KANGPOKPI, MANIPUR, 795126","country":"IN","stateCode":"MN"},{"pincode":"795114","office":"Sagolmang B.O","district":"IMPHAL EAST","state":"MANIPUR","lat":24.955084,"lon":94.024343,"fullAddress":"Sagolmang B.O, IMPHAL EAST, MANIPUR, 795114","country":"IN","stateCode":"MN"},{"pincode":"795138","office":"Thoubal Ningombam B.O","district":"THOUBAL","state":"MANIPUR","lat":24.637555,"lon":93.981852,"fullAddress":"Thoubal Ningombam B.O, THOUBAL, MANIPUR, 795138","country":"IN","stateCode":"MN"},{"pincode":"795128","office":"Sangphou B.O","district":"CHURACHANDPUR","state":"MANIPUR","lat":24.379497,"lon":93.484155,"fullAddress":"Sangphou B.O, CHURACHANDPUR, MANIPUR, 795128","country":"IN","stateCode":"MN"},{"pincode":"795159","office":"Lukhambi B.O","district":"NONEY","state":"MANIPUR","lat":24.862533,"lon":93.556879,"fullAddress":"Lukhambi B.O, NONEY, MANIPUR, 795159","country":"IN","stateCode":"MN"},{"pincode":"795128","office":"Tollen B.O","district":"CHURACHANDPUR","state":"MANIPUR","lat":24.38186,"lon":93.70262,"fullAddress":"Tollen B.O, CHURACHANDPUR, MANIPUR, 795128","country":"IN","stateCode":"MN"},{"pincode":"795133","office":"Phousabung B.O","district":"CHURACHANDPUR","state":"MANIPUR","lat":24.456645,"lon":93.716094,"fullAddress":"Phousabung B.O, CHURACHANDPUR, MANIPUR, 795133","country":"IN","stateCode":"MN"},{"pincode":"795001","office":"Imphal H.O","district":"IMPHAL WEST","state":"MANIPUR","lat":24.80197222,"lon":93.94052778,"fullAddress":"Imphal H.O, IMPHAL WEST, MANIPUR, 795001","country":"IN","stateCode":"MN"},{"pincode":"795126","office":"Dolang B.O","district":"KANGPOKPI","state":"MANIPUR","lat":24.6750916,"lon":93.6186209,"fullAddress":"Dolang B.O, KANGPOKPI, MANIPUR, 795126","country":"IN","stateCode":"MN"}]