[{"pincode":"476339","office":"Awada B.O","district":"SHEOPUR","state":"MADHYA PRADESH","lat":25.5216772,"lon":76.7760297,"fullAddress":"Awada B.O, SHEOPUR, MADHYA PRADESH, 476339","country":"IN","stateCode":"MP"},{"pincode":"480884","office":"Bijadeori Ryt.","district":"SEONI","state":"MADHYA PRADESH","lat":null,"lon":null,"fullAddress":"Bijadeori Ryt., SEONI, MADHYA PRADESH, 480884","country":"IN","stateCode":"MP"},{"pincode":"480551","office":"Navegaon B.O","district":"CHHINDWARA","state":"MADHYA PRADESH","lat":21.463386,"lon":79.171431,"fullAddress":"Navegaon B.O, CHHINDWARA, MADHYA PRADESH, 480551","country":"IN","stateCode":"MP"},{"pincode":"451441","office":"Banher B.O","district":"KHARGONE","state":"MADHYA PRADESH","lat":21.6972,"lon":75.6997,"fullAddress":"Banher B.O, KHARGONE, MADHYA PRADESH, 451441","country":"IN","stateCode":"MP"},{"pincode":"457001","office":"Tambolia B.O","district":"RATLAM","state":"MADHYA PRADESH","lat":23.33,"lon":75.33,"fullAddress":"Tambolia B.O, RATLAM, MADHYA PRADESH, 457001","country":"IN","stateCode":"MP"},{"pincode":"457779","office":"Kachaldara B.O","district":"JHABUA","state":"MADHYA PRADESH","lat":22.9,"lon":74.54,"fullAddress":"Kachaldara B.O, JHABUA, MADHYA PRADESH, 457779","country":"IN","stateCode":"MP"},{"pincode":"470666","office":"Kindroh B.O","district":"DAMOH","state":"MADHYA PRADESH","lat":23.913645,"lon":79.239476,"fullAddress":"Kindroh B.O, DAMOH, MADHYA PRADESH, 470666","country":"IN","stateCode":"MP"},{"pincode":"473775","office":"Parasari","district":"SHIVPURI","state":"MADHYA PRADESH","lat":25.4360085689618,"lon":77.34009917,"fullAddress":"Parasari, SHIVPURI, MADHYA PRADESH, 473775","country":"IN","stateCode":"MP"},{"pincode":"480223","office":"Banka Mukasa B.O","district":"CHHINDWARA","state":"MADHYA PRADESH","lat":22.193876,"lon":79.024952,"fullAddress":"Banka Mukasa B.O, CHHINDWARA, MADHYA PRADESH, 480223","country":"IN","stateCode":"MP"},{"pincode":"481990","office":"Kohani Deori B.O","district":"DINDORI","state":"MADHYA PRADESH","lat":23.330811,"lon":79.814266,"fullAddress":"Kohani Deori B.O, DINDORI, MADHYA PRADESH, 481990","country":"IN","stateCode":"MP"},{"pincode":"464114","office":"Khamkheda B.O","district":"VIDISHA","state":"MADHYA PRADESH","lat":24.005826,"lon":77.706063,"fullAddress":"Khamkheda B.O, VIDISHA, MADHYA PRADESH, 464114","country":"IN","stateCode":"MP"},{"pincode":"473444","office":"Sonai","district":"ASHOKNAGAR","state":"MADHYA PRADESH","lat":24.4844183244733,"lon":78.14085081,"fullAddress":"Sonai, ASHOKNAGAR, MADHYA PRADESH, 473444","country":"IN","stateCode":"MP"},{"pincode":"472339","office":"Dhamanakhas B.O","district":"TIKAMGARH","state":"MADHYA PRADESH","lat":24.75001,"lon":79.06669,"fullAddress":"Dhamanakhas B.O, TIKAMGARH, MADHYA PRADESH, 472339","country":"IN","stateCode":"MP"},{"pincode":"476335","office":"Ochhapura B.O","district":"SHEOPUR","state":"MADHYA PRADESH","lat":25.889,"lon":76.997,"fullAddress":"Ochhapura B.O, SHEOPUR, MADHYA PRADESH, 476335","country":"IN","stateCode":"MP"},{"pincode":"486445","office":"Badagaon  Kothar B.O","district":"REWA","state":"MADHYA PRADESH","lat":24.5373,"lon":81.3042,"fullAddress":"Badagaon  Kothar B.O, REWA, MADHYA PRADESH, 486445","country":"IN","stateCode":"MP"},{"pincode":"451114","office":"Chhirwa B.O","district":"KHARGONE","state":"MADHYA PRADESH","lat":21.9737,"lon":75.9277,"fullAddress":"Chhirwa B.O, KHARGONE, MADHYA PRADESH, 451114","country":"IN","stateCode":"MP"},{"pincode":"458880","office":"Chiknia B.O","district":"MANDSAUR","state":"MADHYA PRADESH","lat":24.3186,"lon":75.642,"fullAddress":"Chiknia B.O, MANDSAUR, MADHYA PRADESH, 458880","country":"IN","stateCode":"MP"},{"pincode":"475675","office":"Kuleth B.O (Indergarh)","district":"DATIA","state":"MADHYA PRADESH","lat":25.9691,"lon":78.5373,"fullAddress":"Kuleth B.O (Indergarh), DATIA, MADHYA PRADESH, 475675","country":"IN","stateCode":"MP"},{"pincode":"487114","office":"Simribadi B.O","district":"NARSINGHPUR","state":"MADHYA PRADESH","lat":null,"lon":null,"fullAddress":"Simribadi B.O, NARSINGHPUR, MADHYA PRADESH, 487114","country":"IN","stateCode":"MP"},{"pincode":"477333","office":"Atarsuma B.O","district":"BHIND","state":"MADHYA PRADESH","lat":26.440314,"lon":78.97155,"fullAddress":"Atarsuma B.O, BHIND, MADHYA PRADESH, 477333","country":"IN","stateCode":"MP"},{"pincode":"483336","office":"Pola B.O","district":"JABALPUR","state":"MADHYA PRADESH","lat":null,"lon":null,"fullAddress":"Pola B.O, JABALPUR, MADHYA PRADESH, 483336","country":"IN","stateCode":"MP"},{"pincode":"455227","office":"Pankunwa B.O","district":"DEWAS","state":"MADHYA PRADESH","lat":22.530755,"lon":76.285563,"fullAddress":"Pankunwa B.O, DEWAS, MADHYA PRADESH, 455227","country":"IN","stateCode":"MP"},{"pincode":"484664","office":"Sejwahi","district":"UMARIA","state":"MADHYA PRADESH","lat":23.8547,"lon":81.070876,"fullAddress":"Sejwahi, UMARIA, MADHYA PRADESH, 484664","country":"IN","stateCode":"MP"},{"pincode":"481662","office":"Sikosi BO","district":"MANDLA","state":"MADHYA PRADESH","lat":23.654948,"lon":79.338348,"fullAddress":"Sikosi BO, MANDLA, MADHYA PRADESH, 481662","country":"IN","stateCode":"MP"},{"pincode":"483113","office":"Gadaghat B.O","district":"JABALPUR","state":"MADHYA PRADESH","lat":22.534771,"lon":79.412149,"fullAddress":"Gadaghat B.O, JABALPUR, MADHYA PRADESH, 483113","country":"IN","stateCode":"MP"},{"pincode":"470113","office":"Kanjiya B.O","district":"SAGAR","state":"MADHYA PRADESH","lat":24.351766,"lon":78.164519,"fullAddress":"Kanjiya B.O, SAGAR, MADHYA PRADESH, 470113","country":"IN","stateCode":"MP"},{"pincode":"473440","office":"Piprai S.O","district":"ASHOKNAGAR","state":"MADHYA PRADESH","lat":24.518083,"lon":77.714846,"fullAddress":"Piprai S.O, ASHOKNAGAR, MADHYA PRADESH, 473440","country":"IN","stateCode":"MP"},{"pincode":"472331","office":"Marguwna B.O","district":"TIKAMGARH","state":"MADHYA PRADESH","lat":25.1073,"lon":78.83855,"fullAddress":"Marguwna B.O, TIKAMGARH, MADHYA PRADESH, 472331","country":"IN","stateCode":"MP"},{"pincode":"475673","office":"Marseni Khurd B.O","district":"DATIA","state":"MADHYA PRADESH","lat":26.069032,"lon":78.671076,"fullAddress":"Marseni Khurd B.O, DATIA, MADHYA PRADESH, 475673","country":"IN","stateCode":"MP"},{"pincode":"484334","office":"Kartora B.O","district":"ANUPPUR","state":"MADHYA PRADESH","lat":23.42,"lon":81.93,"fullAddress":"Kartora B.O, ANUPPUR, MADHYA PRADESH, 484334","country":"IN","stateCode":"MP"},{"pincode":"477660","office":"Aroli B.O","district":"BHIND","state":"MADHYA PRADESH","lat":26.658122,"lon":78.519656,"fullAddress":"Aroli B.O, BHIND, MADHYA PRADESH, 477660","country":"IN","stateCode":"MP"},{"pincode":"464331","office":"Gunnotha B.O","district":"VIDISHA","state":"MADHYA PRADESH","lat":23.569318,"lon":78.187792,"fullAddress":"Gunnotha B.O, VIDISHA, MADHYA PRADESH, 464331","country":"IN","stateCode":"MP"},{"pincode":"456222","office":"Bamnapati B.O","district":"UJJAIN","state":"MADHYA PRADESH","lat":23.19533,"lon":75.60335,"fullAddress":"Bamnapati B.O, UJJAIN, MADHYA PRADESH, 456222","country":"IN","stateCode":"MP"},{"pincode":"464886","office":"Berua B.O","district":"RAISEN","state":"MADHYA PRADESH","lat":23.2162,"lon":78.5632,"fullAddress":"Berua B.O, RAISEN, MADHYA PRADESH, 464886","country":"IN","stateCode":"MP"},{"pincode":"473101","office":"Ghatavda B.O","district":"GUNA","state":"MADHYA PRADESH","lat":24.51,"lon":77.49,"fullAddress":"Ghatavda B.O, GUNA, MADHYA PRADESH, 473101","country":"IN","stateCode":"MP"},{"pincode":"486001","office":"Rewa Medical College S.O","district":"REWA","state":"MADHYA PRADESH","lat":24.5316389,"lon":81.2997222,"fullAddress":"Rewa Medical College S.O, REWA, MADHYA PRADESH, 486001","country":"IN","stateCode":"MP"},{"pincode":"465447","office":"Modi B.O","district":"AGAR MALWA","state":"MADHYA PRADESH","lat":24.58559,"lon":73.977126,"fullAddress":"Modi B.O, AGAR MALWA, MADHYA PRADESH, 465447","country":"IN","stateCode":"MP"},{"pincode":"470120","office":"Bhapel B.O","district":"SAGAR","state":"MADHYA PRADESH","lat":23.810743,"lon":78.628525,"fullAddress":"Bhapel B.O, SAGAR, MADHYA PRADESH, 470120","country":"IN","stateCode":"MP"},{"pincode":"483501","office":"Ganeshpur B.O","district":"KATNI","state":"MADHYA PRADESH","lat":23.714092,"lon":80.493827,"fullAddress":"Ganeshpur B.O, KATNI, MADHYA PRADESH, 483501","country":"IN","stateCode":"MP"},{"pincode":"457001","office":"Naugawa B.O","district":"RATLAM","state":"MADHYA PRADESH","lat":23.33,"lon":75.03,"fullAddress":"Naugawa B.O, RATLAM, MADHYA PRADESH, 457001","country":"IN","stateCode":"MP"},{"pincode":"486675","office":"Khuteli B.O","district":"SIDHI","state":"MADHYA PRADESH","lat":24.52,"lon":82.27,"fullAddress":"Khuteli B.O, SIDHI, MADHYA PRADESH, 486675","country":"IN","stateCode":"MP"},{"pincode":"477111","office":"Tarsokhar B.O","district":"BHIND","state":"MADHYA PRADESH","lat":26.701777,"lon":78.648345,"fullAddress":"Tarsokhar B.O, BHIND, MADHYA PRADESH, 477111","country":"IN","stateCode":"MP"},{"pincode":"451551","office":"Pati B.O","district":"BARWANI","state":"MADHYA PRADESH","lat":21.9403,"lon":74.7465,"fullAddress":"Pati B.O, BARWANI, MADHYA PRADESH, 451551","country":"IN","stateCode":"MP"},{"pincode":"481116","office":"Karhu B.O","district":"BALAGHAT","state":"MADHYA PRADESH","lat":null,"lon":null,"fullAddress":"Karhu B.O, BALAGHAT, MADHYA PRADESH, 481116","country":"IN","stateCode":"MP"},{"pincode":"473335","office":"Munderi Isagarh","district":"ASHOKNAGAR","state":"MADHYA PRADESH","lat":24.9142413353272,"lon":77.93321404,"fullAddress":"Munderi Isagarh, ASHOKNAGAR, MADHYA PRADESH, 473335","country":"IN","stateCode":"MP"},{"pincode":"454001","office":"Dedla B.O","district":"DHAR","state":"MADHYA PRADESH","lat":22.5524391,"lon":75.3947017,"fullAddress":"Dedla B.O, DHAR, MADHYA PRADESH, 454001","country":"IN","stateCode":"MP"},{"pincode":"455339","office":"Eklera B.O","district":"DEWAS","state":"MADHYA PRADESH","lat":23.153142,"lon":76.39556,"fullAddress":"Eklera B.O, DEWAS, MADHYA PRADESH, 455339","country":"IN","stateCode":"MP"},{"pincode":"456313","office":"Nandiyasi B.O","district":"UJJAIN","state":"MADHYA PRADESH","lat":23.299247,"lon":75.347048,"fullAddress":"Nandiyasi B.O, UJJAIN, MADHYA PRADESH, 456313","country":"IN","stateCode":"MP"},{"pincode":"473773","office":"Peeronth B.O","district":"SHIVPURI","state":"MADHYA PRADESH","lat":24.92,"lon":77.73,"fullAddress":"Peeronth B.O, SHIVPURI, MADHYA PRADESH, 473773","country":"IN","stateCode":"MP"},{"pincode":"453220","office":"Bachhoda B.O","district":"INDORE","state":"MADHYA PRADESH","lat":22.969389,"lon":75.499043,"fullAddress":"Bachhoda B.O, INDORE, MADHYA PRADESH, 453220","country":"IN","stateCode":"MP"},{"pincode":"484881","office":"Ranai Kapa","district":"ANUPPUR","state":"MADHYA PRADESH","lat":22.9525,"lon":81.369056,"fullAddress":"Ranai Kapa, ANUPPUR, MADHYA PRADESH, 484881","country":"IN","stateCode":"MP"},{"pincode":"477660","office":"Nunhad B.O","district":"BHIND","state":"MADHYA PRADESH","lat":26.544095,"lon":78.510287,"fullAddress":"Nunhad B.O, BHIND, MADHYA PRADESH, 477660","country":"IN","stateCode":"MP"},{"pincode":"458339","office":"Chaldu B.O","district":"NEEMUCH","state":"MADHYA PRADESH","lat":24.2833799,"lon":74.990871,"fullAddress":"Chaldu B.O, NEEMUCH, MADHYA PRADESH, 458339","country":"IN","stateCode":"MP"},{"pincode":"458990","office":"Sitamau S.O","district":"MANDSAUR","state":"MADHYA PRADESH","lat":24.0135833,"lon":75.3524444,"fullAddress":"Sitamau S.O, MANDSAUR, MADHYA PRADESH, 458990","country":"IN","stateCode":"MP"},{"pincode":"473444","office":"Parkana B.O","district":"ASHOKNAGAR","state":"MADHYA PRADESH","lat":24.54,"lon":78.08,"fullAddress":"Parkana B.O, ASHOKNAGAR, MADHYA PRADESH, 473444","country":"IN","stateCode":"MP"},{"pincode":"481222","office":"DORLI B.O","district":"BALAGHAT","state":"MADHYA PRADESH","lat":null,"lon":null,"fullAddress":"DORLI B.O, BALAGHAT, MADHYA PRADESH, 481222","country":"IN","stateCode":"MP"},{"pincode":"486669","office":"Mahkhor B.O","district":"SIDHI","state":"MADHYA PRADESH","lat":null,"lon":null,"fullAddress":"Mahkhor B.O, SIDHI, MADHYA PRADESH, 486669","country":"IN","stateCode":"MP"},{"pincode":"464886","office":"Khamkua B.O","district":"RAISEN","state":"MADHYA PRADESH","lat":23.322991,"lon":78.580851,"fullAddress":"Khamkua B.O, RAISEN, MADHYA PRADESH, 464886","country":"IN","stateCode":"MP"},{"pincode":"457888","office":"Pipliawat B.O","district":"ALIRAJPUR","state":"MADHYA PRADESH","lat":22.11,"lon":74.37,"fullAddress":"Pipliawat B.O, ALIRAJPUR, MADHYA PRADESH, 457888","country":"IN","stateCode":"MP"},{"pincode":"456770","office":"Kanardi B.O","district":"UJJAIN","state":"MADHYA PRADESH","lat":23.352709,"lon":76.14649,"fullAddress":"Kanardi B.O, UJJAIN, MADHYA PRADESH, 456770","country":"IN","stateCode":"MP"},{"pincode":"453441","office":"Men B.O","district":"INDORE","state":"MADHYA PRADESH","lat":45.253783,"lon":69.445469,"fullAddress":"Men B.O, INDORE, MADHYA PRADESH, 453441","country":"IN","stateCode":"MP"},{"pincode":"487661","office":"Deori B.O","district":"NARSINGHPUR","state":"MADHYA PRADESH","lat":null,"lon":null,"fullAddress":"Deori B.O, NARSINGHPUR, MADHYA PRADESH, 487661","country":"IN","stateCode":"MP"},{"pincode":"458669","office":"Nagari B.O","district":"MANDSAUR","state":"MADHYA PRADESH","lat":24.0822,"lon":76.517,"fullAddress":"Nagari B.O, MANDSAUR, MADHYA PRADESH, 458669","country":"IN","stateCode":"MP"},{"pincode":"464114","office":"Murwas B.O","district":"VIDISHA","state":"MADHYA PRADESH","lat":24.077615,"lon":77.513212,"fullAddress":"Murwas B.O, VIDISHA, MADHYA PRADESH, 464114","country":"IN","stateCode":"MP"},{"pincode":"485881","office":"Sonadi B.O","district":"SATNA","state":"MADHYA PRADESH","lat":24.579,"lon":81.832,"fullAddress":"Sonadi B.O, SATNA, MADHYA PRADESH, 485881","country":"IN","stateCode":"MP"},{"pincode":"470880","office":"Mulra","district":"DAMOH","state":"MADHYA PRADESH","lat":23.465844,"lon":79.684874,"fullAddress":"Mulra, DAMOH, MADHYA PRADESH, 470880","country":"IN","stateCode":"MP"},{"pincode":"457118","office":"Madhopur B.O","district":"RATLAM","state":"MADHYA PRADESH","lat":23.72,"lon":75.37,"fullAddress":"Madhopur B.O, RATLAM, MADHYA PRADESH, 457118","country":"IN","stateCode":"MP"},{"pincode":"453115","office":"Khireli","district":"INDORE","state":"MADHYA PRADESH","lat":22.811387,"lon":75.442292,"fullAddress":"Khireli, INDORE, MADHYA PRADESH, 453115","country":"IN","stateCode":"MP"},{"pincode":"471311","office":"Dhimarwara B.O","district":"CHHATARPUR","state":"MADHYA PRADESH","lat":24.53118,"lon":79.3006,"fullAddress":"Dhimarwara B.O, CHHATARPUR, MADHYA PRADESH, 471311","country":"IN","stateCode":"MP"},{"pincode":"486447","office":"Purauna B.O","district":"REWA","state":"MADHYA PRADESH","lat":24.5373,"lon":81.3042,"fullAddress":"Purauna B.O, REWA, MADHYA PRADESH, 486447","country":"IN","stateCode":"MP"},{"pincode":"480106","office":"Jobnikhapa B.O","district":"CHHINDWARA","state":"MADHYA PRADESH","lat":21.242607,"lon":81.669146,"fullAddress":"Jobnikhapa B.O, CHHINDWARA, MADHYA PRADESH, 480106","country":"IN","stateCode":"MP"},{"pincode":"462010","office":"Prempura B.O","district":"BHOPAL","state":"MADHYA PRADESH","lat":23.34012806,"lon":77.34497309,"fullAddress":"Prempura B.O, BHOPAL, MADHYA PRADESH, 462010","country":"IN","stateCode":"MP"},{"pincode":"458220","office":"Dhamnia B.O","district":"NEEMUCH","state":"MADHYA PRADESH","lat":24.594158,"lon":74.862702,"fullAddress":"Dhamnia B.O, NEEMUCH, MADHYA PRADESH, 458220","country":"IN","stateCode":"MP"},{"pincode":"486666","office":"Chamradol B.O","district":"SIDHI","state":"MADHYA PRADESH","lat":null,"lon":null,"fullAddress":"Chamradol B.O, SIDHI, MADHYA PRADESH, 486666","country":"IN","stateCode":"MP"},{"pincode":"473775","office":"Daurani","district":"SHIVPURI","state":"MADHYA PRADESH","lat":25.4345062729248,"lon":77.29070594,"fullAddress":"Daurani, SHIVPURI, MADHYA PRADESH, 473775","country":"IN","stateCode":"MP"},{"pincode":"471101","office":"Barbaspura","district":"CHHATARPUR","state":"MADHYA PRADESH","lat":24.7154,"lon":79.9073,"fullAddress":"Barbaspura, CHHATARPUR, MADHYA PRADESH, 471101","country":"IN","stateCode":"MP"},{"pincode":"481337","office":"Shankar Pipariya B.O","district":"BALAGHAT","state":"MADHYA PRADESH","lat":null,"lon":null,"fullAddress":"Shankar Pipariya B.O, BALAGHAT, MADHYA PRADESH, 481337","country":"IN","stateCode":"MP"},{"pincode":"470664","office":"Majholi","district":"DAMOH","state":"MADHYA PRADESH","lat":null,"lon":null,"fullAddress":"Majholi, DAMOH, MADHYA PRADESH, 470664","country":"IN","stateCode":"MP"},{"pincode":"465230","office":"Siroliya","district":"AGAR MALWA","state":"MADHYA PRADESH","lat":22.872411,"lon":76.151124,"fullAddress":"Siroliya, AGAR MALWA, MADHYA PRADESH, 465230","country":"IN","stateCode":"MP"},{"pincode":"458110","office":"Jamunia B.O","district":"NEEMUCH","state":"MADHYA PRADESH","lat":24.45277,"lon":75.1532,"fullAddress":"Jamunia B.O, NEEMUCH, MADHYA PRADESH, 458110","country":"IN","stateCode":"MP"},{"pincode":"486550","office":"Tikar B.O","district":"REWA","state":"MADHYA PRADESH","lat":24.5373,"lon":81.3042,"fullAddress":"Tikar B.O, REWA, MADHYA PRADESH, 486550","country":"IN","stateCode":"MP"},{"pincode":"473865","office":"Dhigwas B.O","district":"SHIVPURI","state":"MADHYA PRADESH","lat":25.72,"lon":78.0,"fullAddress":"Dhigwas B.O, SHIVPURI, MADHYA PRADESH, 473865","country":"IN","stateCode":"MP"},{"pincode":"464114","office":"Rusallisahu B.O","district":"VIDISHA","state":"MADHYA PRADESH","lat":19.03504,"lon":72.847755,"fullAddress":"Rusallisahu B.O, VIDISHA, MADHYA PRADESH, 464114","country":"IN","stateCode":"MP"},{"pincode":"451001","office":"Chandanpuri B.O","district":"KHARGONE","state":"MADHYA PRADESH","lat":20.5213,"lon":74.5371,"fullAddress":"Chandanpuri B.O, KHARGONE, MADHYA PRADESH, 451001","country":"IN","stateCode":"MP"},{"pincode":"465674","office":"Ashapura","district":"RAJGARH","state":"MADHYA PRADESH","lat":23.808078,"lon":76.879843,"fullAddress":"Ashapura, RAJGARH, MADHYA PRADESH, 465674","country":"IN","stateCode":"MP"},{"pincode":"486333","office":"Sitapur B.O","district":"REWA","state":"MADHYA PRADESH","lat":24.5373,"lon":81.3042,"fullAddress":"Sitapur B.O, REWA, MADHYA PRADESH, 486333","country":"IN","stateCode":"MP"},{"pincode":"480221","office":"Markawara B.O","district":"CHHINDWARA","state":"MADHYA PRADESH","lat":23.218087,"lon":79.937458,"fullAddress":"Markawara B.O, CHHINDWARA, MADHYA PRADESH, 480221","country":"IN","stateCode":"MP"},{"pincode":"466120","office":"Jasmat B.O","district":"SEHORE","state":"MADHYA PRADESH","lat":22.865623,"lon":76.649935,"fullAddress":"Jasmat B.O, SEHORE, MADHYA PRADESH, 466120","country":"IN","stateCode":"MP"},{"pincode":"471408","office":"NEGUWAN B.O","district":"CHHATARPUR","state":"MADHYA PRADESH","lat":24.435,"lon":79.7571,"fullAddress":"NEGUWAN B.O, CHHATARPUR, MADHYA PRADESH, 471408","country":"IN","stateCode":"MP"},{"pincode":"485221","office":"Jaitwara S.O","district":"SATNA","state":"MADHYA PRADESH","lat":24.7375,"lon":80.8722,"fullAddress":"Jaitwara S.O, SATNA, MADHYA PRADESH, 485221","country":"IN","stateCode":"MP"},{"pincode":"465110","office":"Rehali","district":"SHAJAPUR","state":"MADHYA PRADESH","lat":23.642103,"lon":79.678235,"fullAddress":"Rehali, SHAJAPUR, MADHYA PRADESH, 465110","country":"IN","stateCode":"MP"},{"pincode":"458883","office":"Dhabla Gujar B.O","district":"MANDSAUR","state":"MADHYA PRADESH","lat":24.18,"lon":75.6063,"fullAddress":"Dhabla Gujar B.O, MANDSAUR, MADHYA PRADESH, 458883","country":"IN","stateCode":"MP"},{"pincode":"486881","office":"Bandha","district":"SINGRAULI","state":"MADHYA PRADESH","lat":null,"lon":null,"fullAddress":"Bandha, SINGRAULI, MADHYA PRADESH, 486881","country":"IN","stateCode":"MP"},{"pincode":"470001","office":"Sagar Gopalganj S.O","district":"SAGAR","state":"MADHYA PRADESH","lat":23.835255,"lon":78.754604,"fullAddress":"Sagar Gopalganj S.O, SAGAR, MADHYA PRADESH, 470001","country":"IN","stateCode":"MP"},{"pincode":"480224","office":"Dhadhra","district":"CHHINDWARA","state":"MADHYA PRADESH","lat":22.68891597,"lon":79.16267363,"fullAddress":"Dhadhra, CHHINDWARA, MADHYA PRADESH, 480224","country":"IN","stateCode":"MP"},{"pincode":"481880","office":"Raypura B.O","district":"DINDORI","state":"MADHYA PRADESH","lat":22.797884,"lon":86.94864,"fullAddress":"Raypura B.O, DINDORI, MADHYA PRADESH, 481880","country":"IN","stateCode":"MP"},{"pincode":"488446","office":"Tikariya B.O","district":"PANNA","state":"MADHYA PRADESH","lat":24.1277,"lon":79.9044,"fullAddress":"Tikariya B.O, PANNA, MADHYA PRADESH, 488446","country":"IN","stateCode":"MP"},{"pincode":"470775","office":"Magron B.O","district":"DAMOH","state":"MADHYA PRADESH","lat":24.151413,"lon":79.490074,"fullAddress":"Magron B.O, DAMOH, MADHYA PRADESH, 470775","country":"IN","stateCode":"MP"},{"pincode":"480999","office":"Barelaghat B.O","district":"SEONI","state":"MADHYA PRADESH","lat":null,"lon":null,"fullAddress":"Barelaghat B.O, SEONI, MADHYA PRADESH, 480999","country":"IN","stateCode":"MP"},{"pincode":"470227","office":"Ghughari Kheda","district":"SAGAR","state":"MADHYA PRADESH","lat":23.561445,"lon":79.207519,"fullAddress":"Ghughari Kheda, SAGAR, MADHYA PRADESH, 470227","country":"IN","stateCode":"MP"},{"pincode":"452018","office":"Indore Tillaknagar S.O","district":"INDORE","state":"MADHYA PRADESH","lat":22.7175278,"lon":75.8963333,"fullAddress":"Indore Tillaknagar S.O, INDORE, MADHYA PRADESH, 452018","country":"IN","stateCode":"MP"},{"pincode":"465697","office":"Padlyamatatji B.O","district":"RAJGARH","state":"MADHYA PRADESH","lat":23.69486,"lon":76.485226,"fullAddress":"Padlyamatatji B.O, RAJGARH, MADHYA PRADESH, 465697","country":"IN","stateCode":"MP"},{"pincode":"481001","office":"AKODI B.O","district":"BALAGHAT","state":"MADHYA PRADESH","lat":null,"lon":null,"fullAddress":"AKODI B.O, BALAGHAT, MADHYA PRADESH, 481001","country":"IN","stateCode":"MP"},{"pincode":"473113","office":"Bilabawadi","district":"GUNA","state":"MADHYA PRADESH","lat":24.7187230408832,"lon":77.36636473,"fullAddress":"Bilabawadi, GUNA, MADHYA PRADESH, 473113","country":"IN","stateCode":"MP"},{"pincode":"453551","office":"Solsinda B.O","district":"INDORE","state":"MADHYA PRADESH","lat":22.870377,"lon":75.83887,"fullAddress":"Solsinda B.O, INDORE, MADHYA PRADESH, 453551","country":"IN","stateCode":"MP"},{"pincode":"470118","office":"Khimlasa S.O","district":"SAGAR","state":"MADHYA PRADESH","lat":24.204003,"lon":78.364312,"fullAddress":"Khimlasa S.O, SAGAR, MADHYA PRADESH, 470118","country":"IN","stateCode":"MP"},{"pincode":"475330","office":"Nayagaon B.O","district":"GWALIOR","state":"MADHYA PRADESH","lat":26.104703,"lon":78.070898,"fullAddress":"Nayagaon B.O, GWALIOR, MADHYA PRADESH, 475330","country":"IN","stateCode":"MP"},{"pincode":"475110","office":"Bhaisnari B.O","district":"GWALIOR","state":"MADHYA PRADESH","lat":25.811189,"lon":78.283345,"fullAddress":"Bhaisnari B.O, GWALIOR, MADHYA PRADESH, 475110","country":"IN","stateCode":"MP"},{"pincode":"485001","office":"Rampur Gandhi Gram B.O","district":"SATNA","state":"MADHYA PRADESH","lat":24.579,"lon":80.832,"fullAddress":"Rampur Gandhi Gram B.O, SATNA, MADHYA PRADESH, 485001","country":"IN","stateCode":"MP"},{"pincode":"481996","office":"Soda BO","district":"MANDLA","state":"MADHYA PRADESH","lat":27.422784,"lon":82.268608,"fullAddress":"Soda BO, MANDLA, MADHYA PRADESH, 481996","country":"IN","stateCode":"MP"},{"pincode":"480441","office":"Sajwah","district":"CHHINDWARA","state":"MADHYA PRADESH","lat":22.10058977,"lon":78.6425896,"fullAddress":"Sajwah, CHHINDWARA, MADHYA PRADESH, 480441","country":"IN","stateCode":"MP"},{"pincode":"450331","office":"Bori Bujurg B.O","district":"BURHANPUR","state":"MADHYA PRADESH","lat":21.4538,"lon":76.0972,"fullAddress":"Bori Bujurg B.O, BURHANPUR, MADHYA PRADESH, 450331","country":"IN","stateCode":"MP"},{"pincode":"488222","office":"Nardaha B.O","district":"PANNA","state":"MADHYA PRADESH","lat":24.97015,"lon":80.39862,"fullAddress":"Nardaha B.O, PANNA, MADHYA PRADESH, 488222","country":"IN","stateCode":"MP"},{"pincode":"477116","office":"Jhankari B.O","district":"BHIND","state":"MADHYA PRADESH","lat":26.308191,"lon":78.529171,"fullAddress":"Jhankari B.O, BHIND, MADHYA PRADESH, 477116","country":"IN","stateCode":"MP"},{"pincode":"480334","office":"Dhanora Pandhurna B.O","district":"CHHINDWARA","state":"MADHYA PRADESH","lat":22.273183,"lon":78.307383,"fullAddress":"Dhanora Pandhurna B.O, CHHINDWARA, MADHYA PRADESH, 480334","country":"IN","stateCode":"MP"},{"pincode":"485115","office":"Semaria B.O","district":"SATNA","state":"MADHYA PRADESH","lat":24.579,"lon":81.832,"fullAddress":"Semaria B.O, SATNA, MADHYA PRADESH, 485115","country":"IN","stateCode":"MP"},{"pincode":"487661","office":"Piparpani B.O","district":"NARSINGHPUR","state":"MADHYA PRADESH","lat":null,"lon":null,"fullAddress":"Piparpani B.O, NARSINGHPUR, MADHYA PRADESH, 487661","country":"IN","stateCode":"MP"},{"pincode":"486881","office":"Pipri","district":"SINGRAULI","state":"MADHYA PRADESH","lat":null,"lon":null,"fullAddress":"Pipri, SINGRAULI, MADHYA PRADESH, 486881","country":"IN","stateCode":"MP"},{"pincode":"481880","office":"Kamrasoda B.O","district":"DINDORI","state":"MADHYA PRADESH","lat":22.855008,"lon":80.926304,"fullAddress":"Kamrasoda B.O, DINDORI, MADHYA PRADESH, 481880","country":"IN","stateCode":"MP"},{"pincode":"486675","office":"Amarpur B.O","district":"SIDHI","state":"MADHYA PRADESH","lat":23.03,"lon":81.35,"fullAddress":"Amarpur B.O, SIDHI, MADHYA PRADESH, 486675","country":"IN","stateCode":"MP"},{"pincode":"474001","office":"VISM College B.O","district":"GWALIOR","state":"MADHYA PRADESH","lat":78.14612,"lon":26.209132,"fullAddress":"VISM College B.O, GWALIOR, MADHYA PRADESH, 474001","country":"IN","stateCode":"MP"},{"pincode":"480001","office":"Bankanaganpur B.O","district":"CHHINDWARA","state":"MADHYA PRADESH","lat":22.010243,"lon":79.103521,"fullAddress":"Bankanaganpur B.O, CHHINDWARA, MADHYA PRADESH, 480001","country":"IN","stateCode":"MP"},{"pincode":"472115","office":"Futer B.O","district":"TIKAMGARH","state":"MADHYA PRADESH","lat":24.8775,"lon":79.08975,"fullAddress":"Futer B.O, TIKAMGARH, MADHYA PRADESH, 472115","country":"IN","stateCode":"MP"},{"pincode":"473445","office":"Nadan Khedi","district":"ASHOKNAGAR","state":"MADHYA PRADESH","lat":24.4061857667692,"lon":78.02261481,"fullAddress":"Nadan Khedi, ASHOKNAGAR, MADHYA PRADESH, 473445","country":"IN","stateCode":"MP"},{"pincode":"486881","office":"Amo B.O","district":"SINGRAULI","state":"MADHYA PRADESH","lat":null,"lon":null,"fullAddress":"Amo B.O, SINGRAULI, MADHYA PRADESH, 486881","country":"IN","stateCode":"MP"},{"pincode":"457990","office":"Undari B.O","district":"ALIRAJPUR","state":"MADHYA PRADESH","lat":null,"lon":null,"fullAddress":"Undari B.O, ALIRAJPUR, MADHYA PRADESH, 457990","country":"IN","stateCode":"MP"},{"pincode":"465447","office":"Chhapariya B.O","district":"AGAR MALWA","state":"MADHYA PRADESH","lat":23.920057,"lon":76.137794,"fullAddress":"Chhapariya B.O, AGAR MALWA, MADHYA PRADESH, 465447","country":"IN","stateCode":"MP"},{"pincode":"471525","office":"Churiyari B.O","district":"CHHATARPUR","state":"MADHYA PRADESH","lat":25.130407,"lon":80.003126,"fullAddress":"Churiyari B.O, CHHATARPUR, MADHYA PRADESH, 471525","country":"IN","stateCode":"MP"},{"pincode":"451556","office":"Sali B.O","district":"BARWANI","state":"MADHYA PRADESH","lat":21.9752,"lon":75.0433,"fullAddress":"Sali B.O, BARWANI, MADHYA PRADESH, 451556","country":"IN","stateCode":"MP"},{"pincode":"484881","office":"Karanpathar B.O","district":"ANUPPUR","state":"MADHYA PRADESH","lat":22.97,"lon":81.31,"fullAddress":"Karanpathar B.O, ANUPPUR, MADHYA PRADESH, 484881","country":"IN","stateCode":"MP"},{"pincode":"476134","office":"Baghpura B.O","district":"MORENA","state":"MADHYA PRADESH","lat":26.6443216,"lon":78.0985783,"fullAddress":"Baghpura B.O, MORENA, MADHYA PRADESH, 476134","country":"IN","stateCode":"MP"},{"pincode":"484881","office":"Gadhidadar","district":"ANUPPUR","state":"MADHYA PRADESH","lat":23.0690196,"lon":81.3170778,"fullAddress":"Gadhidadar, ANUPPUR, MADHYA PRADESH, 484881","country":"IN","stateCode":"MP"},{"pincode":"481001","office":"KHURSODI B.O","district":"BALAGHAT","state":"MADHYA PRADESH","lat":null,"lon":null,"fullAddress":"KHURSODI B.O, BALAGHAT, MADHYA PRADESH, 481001","country":"IN","stateCode":"MP"},{"pincode":"480559","office":"Jhirpa B.O","district":"CHHINDWARA","state":"MADHYA PRADESH","lat":22.595216,"lon":78.512839,"fullAddress":"Jhirpa B.O, CHHINDWARA, MADHYA PRADESH, 480559","country":"IN","stateCode":"MP"},{"pincode":"475110","office":"Salwai B.O","district":"GWALIOR","state":"MADHYA PRADESH","lat":25.853037,"lon":78.268033,"fullAddress":"Salwai B.O, GWALIOR, MADHYA PRADESH, 475110","country":"IN","stateCode":"MP"},{"pincode":"456770","office":"BERCHHI B.O","district":"UJJAIN","state":"MADHYA PRADESH","lat":23.388152,"lon":76.18417,"fullAddress":"BERCHHI B.O, UJJAIN, MADHYA PRADESH, 456770","country":"IN","stateCode":"MP"},{"pincode":"473885","office":"Raosar Jagir B.O","district":"ASHOKNAGAR","state":"MADHYA PRADESH","lat":24.91,"lon":77.56,"fullAddress":"Raosar Jagir B.O, ASHOKNAGAR, MADHYA PRADESH, 473885","country":"IN","stateCode":"MP"},{"pincode":"481117","office":"MANA B.O","district":"BALAGHAT","state":"MADHYA PRADESH","lat":null,"lon":null,"fullAddress":"MANA B.O, BALAGHAT, MADHYA PRADESH, 481117","country":"IN","stateCode":"MP"},{"pincode":"456010","office":"UJJAIN NANAKHEDA","district":"UJJAIN","state":"MADHYA PRADESH","lat":23.156521,"lon":75.790198,"fullAddress":"UJJAIN NANAKHEDA, UJJAIN, MADHYA PRADESH, 456010","country":"IN","stateCode":"MP"},{"pincode":"470661","office":"Damoh Collectrate S.O","district":"DAMOH","state":"MADHYA PRADESH","lat":23.8381156,"lon":79.4421561,"fullAddress":"Damoh Collectrate S.O, DAMOH, MADHYA PRADESH, 470661","country":"IN","stateCode":"MP"},{"pincode":"481768","office":"Ghateri  BO","district":"MANDLA","state":"MADHYA PRADESH","lat":22.606051,"lon":80.371627,"fullAddress":"Ghateri  BO, MANDLA, MADHYA PRADESH, 481768","country":"IN","stateCode":"MP"},{"pincode":"456770","office":"Kanasia S.O","district":"UJJAIN","state":"MADHYA PRADESH","lat":23.297885,"lon":76.145694,"fullAddress":"Kanasia S.O, UJJAIN, MADHYA PRADESH, 456770","country":"IN","stateCode":"MP"},{"pincode":"461775","office":"Panari","district":"HOSHANGABAD","state":"MADHYA PRADESH","lat":null,"lon":null,"fullAddress":"Panari, HOSHANGABAD, MADHYA PRADESH, 461775","country":"IN","stateCode":"MP"},{"pincode":"473222","office":"Mrigwas B.O","district":"GUNA","state":"MADHYA PRADESH","lat":24.32,"lon":76.91,"fullAddress":"Mrigwas B.O, GUNA, MADHYA PRADESH, 473222","country":"IN","stateCode":"MP"},{"pincode":"474006","office":"Bilhati Kalan B.O","district":"GWALIOR","state":"MADHYA PRADESH","lat":28.361994,"lon":77.276672,"fullAddress":"Bilhati Kalan B.O, GWALIOR, MADHYA PRADESH, 474006","country":"IN","stateCode":"MP"},{"pincode":"471101","office":"Selon B.O","district":"CHHATARPUR","state":"MADHYA PRADESH","lat":24.73336,"lon":79.97855,"fullAddress":"Selon B.O, CHHATARPUR, MADHYA PRADESH, 471101","country":"IN","stateCode":"MP"},{"pincode":"466446","office":"Mardanpur B.O","district":"SEHORE","state":"MADHYA PRADESH","lat":26.429405,"lon":80.26634,"fullAddress":"Mardanpur B.O, SEHORE, MADHYA PRADESH, 466446","country":"IN","stateCode":"MP"},{"pincode":"485772","office":"Madai B.O","district":"SATNA","state":"MADHYA PRADESH","lat":24.579,"lon":81.832,"fullAddress":"Madai B.O, SATNA, MADHYA PRADESH, 485772","country":"IN","stateCode":"MP"},{"pincode":"482001","office":"Tori","district":"JABALPUR","state":"MADHYA PRADESH","lat":23.311543,"lon":80.17316,"fullAddress":"Tori, JABALPUR, MADHYA PRADESH, 482001","country":"IN","stateCode":"MP"},{"pincode":"481224","office":"Kumharikala B.O","district":"BALAGHAT","state":"MADHYA PRADESH","lat":null,"lon":null,"fullAddress":"Kumharikala B.O, BALAGHAT, MADHYA PRADESH, 481224","country":"IN","stateCode":"MP"}]