[{"pincode":"673310","office":"Naluthara BO","district":"MAHE","state":"PUDUCHERRY","lat":11.69,"lon":75.53,"fullAddress":"Naluthara BO, MAHE, PUDUCHERRY, 673310","country":"IN","stateCode":"PY"},{"pincode":"673310","office":"Pallur BO","district":"MAHE","state":"PUDUCHERRY","lat":11.74,"lon":75.54,"fullAddress":"Pallur BO, MAHE, PUDUCHERRY, 673310","country":"IN","stateCode":"PY"},{"pincode":"605007","office":"Nallavadu BO","district":"PONDICHERRY","state":"PUDUCHERRY","lat":11.854554,"lon":79.811464,"fullAddress":"Nallavadu BO, PONDICHERRY, PUDUCHERRY, 605007","country":"IN","stateCode":"PY"},{"pincode":"605007","office":"Veerampattinam BO","district":"PONDICHERRY","state":"PUDUCHERRY","lat":11.89,"lon":79.826873,"fullAddress":"Veerampattinam BO, PONDICHERRY, PUDUCHERRY, 605007","country":"IN","stateCode":"PY"},{"pincode":"607402","office":"Seliyamedu BO","district":"PONDICHERRY","state":"PUDUCHERRY","lat":11.827303,"lon":79.758213,"fullAddress":"Seliyamedu BO, PONDICHERRY, PUDUCHERRY, 607402","country":"IN","stateCode":"PY"},{"pincode":"605010","office":"Olugarai BO","district":"PONDICHERRY","state":"PUDUCHERRY","lat":11.94,"lon":79.78,"fullAddress":"Olugarai BO, PONDICHERRY, PUDUCHERRY, 605010","country":"IN","stateCode":"PY"},{"pincode":"605009","office":"Mouttoupalayam BO","district":"PONDICHERRY","state":"PUDUCHERRY","lat":11.94,"lon":79.79,"fullAddress":"Mouttoupalayam BO, PONDICHERRY, PUDUCHERRY, 605009","country":"IN","stateCode":"PY"},{"pincode":"605501","office":"Vadhanur BO","district":"PONDICHERRY","state":"PUDUCHERRY","lat":11.97,"lon":79.63,"fullAddress":"Vadhanur BO, PONDICHERRY, PUDUCHERRY, 605501","country":"IN","stateCode":"PY"},{"pincode":"605110","office":"Arumparthapuram BO","district":"PONDICHERRY","state":"PUDUCHERRY","lat":11.92,"lon":79.77,"fullAddress":"Arumparthapuram BO, PONDICHERRY, PUDUCHERRY, 605110","country":"IN","stateCode":"PY"},{"pincode":"605110","office":"Mangalam BO","district":"PONDICHERRY","state":"PUDUCHERRY","lat":11.89,"lon":79.72,"fullAddress":"Mangalam BO, PONDICHERRY, PUDUCHERRY, 605110","country":"IN","stateCode":"PY"},{"pincode":"605110","office":"Sulthanpet BO","district":"PONDICHERRY","state":"PUDUCHERRY","lat":11.92,"lon":79.76,"fullAddress":"Sulthanpet BO, PONDICHERRY, PUDUCHERRY, 605110","country":"IN","stateCode":"PY"},{"pincode":"605102","office":"Ariyur BO","district":"PONDICHERRY","state":"PUDUCHERRY","lat":11.91,"lon":79.7,"fullAddress":"Ariyur BO, PONDICHERRY, PUDUCHERRY, 605102","country":"IN","stateCode":"PY"},{"pincode":"605107","office":"Thirubuvanai BO","district":"PONDICHERRY","state":"PUDUCHERRY","lat":11.93,"lon":79.64,"fullAddress":"Thirubuvanai BO, PONDICHERRY, PUDUCHERRY, 605107","country":"IN","stateCode":"PY"},{"pincode":"609603","office":"Nallathur B.O","district":"KARAIKAL","state":"PUDUCHERRY","lat":11.0,"lon":79.77,"fullAddress":"Nallathur B.O, KARAIKAL, PUDUCHERRY, 609603","country":"IN","stateCode":"PY"},{"pincode":"609605","office":"Karaikoilpathu B.O","district":"KARAIKAL","state":"PUDUCHERRY","lat":10.94,"lon":79.84,"fullAddress":"Karaikoilpathu B.O, KARAIKAL, PUDUCHERRY, 609605","country":"IN","stateCode":"PY"},{"pincode":"609607","office":"Vizhithiyur B.O","district":"KARAIKAL","state":"PUDUCHERRY","lat":10.91,"lon":79.77,"fullAddress":"Vizhithiyur B.O, KARAIKAL, PUDUCHERRY, 609607","country":"IN","stateCode":"PY"},{"pincode":"607402","office":"Bahoor SO","district":"PONDICHERRY","state":"PUDUCHERRY","lat":11.8092778,"lon":79.7379722,"fullAddress":"Bahoor SO, PONDICHERRY, PUDUCHERRY, 607402","country":"IN","stateCode":"PY"},{"pincode":"605106","office":"Nettapakkam SO","district":"PONDICHERRY","state":"PUDUCHERRY","lat":11.8826944,"lon":79.4668889,"fullAddress":"Nettapakkam SO, PONDICHERRY, PUDUCHERRY, 605106","country":"IN","stateCode":"PY"},{"pincode":"605002","office":"Sri Aurobindo Ashram SO","district":"PONDICHERRY","state":"PUDUCHERRY","lat":11.9458611,"lon":79.8346111,"fullAddress":"Sri Aurobindo Ashram SO, PONDICHERRY, PUDUCHERRY, 605002","country":"IN","stateCode":"PY"},{"pincode":"609601","office":"Ambagarathur S.O","district":"KARAIKAL","state":"PUDUCHERRY","lat":10.96,"lon":79.73,"fullAddress":"Ambagarathur S.O, KARAIKAL, PUDUCHERRY, 609601","country":"IN","stateCode":"PY"},{"pincode":"609604","office":"Neravy S.O","district":"KARAIKAL","state":"PUDUCHERRY","lat":10.89,"lon":79.82,"fullAddress":"Neravy S.O, KARAIKAL, PUDUCHERRY, 609604","country":"IN","stateCode":"PY"},{"pincode":"605007","office":"Abishegapakkam BO","district":"PONDICHERRY","state":"PUDUCHERRY","lat":11.867307,"lon":79.775032,"fullAddress":"Abishegapakkam BO, PONDICHERRY, PUDUCHERRY, 605007","country":"IN","stateCode":"PY"},{"pincode":"605007","office":"Poornankuppam BO","district":"PONDICHERRY","state":"PUDUCHERRY","lat":11.872799,"lon":79.810063,"fullAddress":"Poornankuppam BO, PONDICHERRY, PUDUCHERRY, 605007","country":"IN","stateCode":"PY"},{"pincode":"605007","office":"Thimmappanaickenpalayam BO","district":"PONDICHERRY","state":"PUDUCHERRY","lat":11.84,"lon":79.77,"fullAddress":"Thimmappanaickenpalayam BO, PONDICHERRY, PUDUCHERRY, 605007","country":"IN","stateCode":"PY"},{"pincode":"605106","office":"Kariyamanikam BO","district":"PONDICHERRY","state":"PUDUCHERRY","lat":11.8775,"lon":79.63056,"fullAddress":"Kariyamanikam BO, PONDICHERRY, PUDUCHERRY, 605106","country":"IN","stateCode":"PY"},{"pincode":"605009","office":"Moutrepalayam BO","district":"PONDICHERRY","state":"PUDUCHERRY","lat":11.94,"lon":79.77,"fullAddress":"Moutrepalayam BO, PONDICHERRY, PUDUCHERRY, 605009","country":"IN","stateCode":"PY"},{"pincode":"605501","office":"Mannadipattu BO","district":"PONDICHERRY","state":"PUDUCHERRY","lat":11.99,"lon":79.62,"fullAddress":"Mannadipattu BO, PONDICHERRY, PUDUCHERRY, 605501","country":"IN","stateCode":"PY"},{"pincode":"605110","office":"Korkadu BO","district":"PONDICHERRY","state":"PUDUCHERRY","lat":11.89,"lon":79.74,"fullAddress":"Korkadu BO, PONDICHERRY, PUDUCHERRY, 605110","country":"IN","stateCode":"PY"},{"pincode":"605107","office":"Puranasingapalayam BO","district":"PONDICHERRY","state":"PUDUCHERRY","lat":11.95,"lon":79.63,"fullAddress":"Puranasingapalayam BO, PONDICHERRY, PUDUCHERRY, 605107","country":"IN","stateCode":"PY"},{"pincode":"605502","office":"Coudapakkam BO","district":"PONDICHERRY","state":"PUDUCHERRY","lat":11.94,"lon":79.73,"fullAddress":"Coudapakkam BO, PONDICHERRY, PUDUCHERRY, 605502","country":"IN","stateCode":"PY"},{"pincode":"609606","office":"T.R.Pattinam South B.O","district":"KARAIKAL","state":"PUDUCHERRY","lat":10.87,"lon":79.83,"fullAddress":"T.R.Pattinam South B.O, KARAIKAL, PUDUCHERRY, 609606","country":"IN","stateCode":"PY"},{"pincode":"605007","office":"Ariyankuppam SO","district":"PONDICHERRY","state":"PUDUCHERRY","lat":11.8951667,"lon":79.8115278,"fullAddress":"Ariyankuppam SO, PONDICHERRY, PUDUCHERRY, 605007","country":"IN","stateCode":"PY"},{"pincode":"605003","office":"Muthialpet SO","district":"PONDICHERRY","state":"PUDUCHERRY","lat":11.9568056,"lon":79.8351944,"fullAddress":"Muthialpet SO, PONDICHERRY, PUDUCHERRY, 605003","country":"IN","stateCode":"PY"},{"pincode":"605013","office":"SaramPy SO","district":"PONDICHERRY","state":"PUDUCHERRY","lat":11.9388611,"lon":79.8145278,"fullAddress":"SaramPy SO, PONDICHERRY, PUDUCHERRY, 605013","country":"IN","stateCode":"PY"},{"pincode":"605009","office":"Thattanchavady SO","district":"PONDICHERRY","state":"PUDUCHERRY","lat":11.9470556,"lon":79.80575,"fullAddress":"Thattanchavady SO, PONDICHERRY, PUDUCHERRY, 605009","country":"IN","stateCode":"PY"},{"pincode":"605011","office":"Venkata Nagar SO","district":"PONDICHERRY","state":"PUDUCHERRY","lat":11.94025,"lon":79.82525,"fullAddress":"Venkata Nagar SO, PONDICHERRY, PUDUCHERRY, 605011","country":"IN","stateCode":"PY"},{"pincode":"605110","office":"Villiyanur SO","district":"PONDICHERRY","state":"PUDUCHERRY","lat":11.9155278,"lon":79.7534722,"fullAddress":"Villiyanur SO, PONDICHERRY, PUDUCHERRY, 605110","country":"IN","stateCode":"PY"},{"pincode":"533464","office":"Yanam S.O","district":"YANAM","state":"PUDUCHERRY","lat":17.3213,"lon":82.0407,"fullAddress":"Yanam S.O, YANAM, PUDUCHERRY, 533464","country":"IN","stateCode":"PY"},{"pincode":"673310","office":"Mahe SO","district":"MAHE","state":"PUDUCHERRY","lat":11.6988219,"lon":75.5466845,"fullAddress":"Mahe SO, MAHE, PUDUCHERRY, 673310","country":"IN","stateCode":"PY"},{"pincode":"609602","office":"Karaikal S.O","district":"KARAIKAL","state":"PUDUCHERRY","lat":10.9239167,"lon":79.8310278,"fullAddress":"Karaikal S.O, KARAIKAL, PUDUCHERRY, 609602","country":"IN","stateCode":"PY"},{"pincode":"609609","office":"Kottuchery S.O","district":"KARAIKAL","state":"PUDUCHERRY","lat":10.96,"lon":79.83,"fullAddress":"Kottuchery S.O, KARAIKAL, PUDUCHERRY, 609609","country":"IN","stateCode":"PY"},{"pincode":"609603","office":"Nedungadu S.O","district":"KARAIKAL","state":"PUDUCHERRY","lat":10.58,"lon":79.46,"fullAddress":"Nedungadu S.O, KARAIKAL, PUDUCHERRY, 609603","country":"IN","stateCode":"PY"},{"pincode":"607402","office":"Courouvinatham BO","district":"PONDICHERRY","state":"PUDUCHERRY","lat":11.795449,"lon":79.732977,"fullAddress":"Courouvinatham BO, PONDICHERRY, PUDUCHERRY, 607402","country":"IN","stateCode":"PY"},{"pincode":"605106","office":"Embalam BO","district":"PONDICHERRY","state":"PUDUCHERRY","lat":11.874961,"lon":79.714747,"fullAddress":"Embalam BO, PONDICHERRY, PUDUCHERRY, 605106","country":"IN","stateCode":"PY"},{"pincode":"605501","office":"Sorapattu BO","district":"PONDICHERRY","state":"PUDUCHERRY","lat":11.96,"lon":79.65,"fullAddress":"Sorapattu BO, PONDICHERRY, PUDUCHERRY, 605501","country":"IN","stateCode":"PY"},{"pincode":"605110","office":"Odiampattu BO","district":"PONDICHERRY","state":"PUDUCHERRY","lat":11.91,"lon":79.78,"fullAddress":"Odiampattu BO, PONDICHERRY, PUDUCHERRY, 605110","country":"IN","stateCode":"PY"},{"pincode":"605105","office":"Maducore BO","district":"PONDICHERRY","state":"PUDUCHERRY","lat":11.87,"lon":79.6,"fullAddress":"Maducore BO, PONDICHERRY, PUDUCHERRY, 605105","country":"IN","stateCode":"PY"},{"pincode":"605107","office":"Madagadipet BO","district":"PONDICHERRY","state":"PUDUCHERRY","lat":11.92,"lon":79.63,"fullAddress":"Madagadipet BO, PONDICHERRY, PUDUCHERRY, 605107","country":"IN","stateCode":"PY"},{"pincode":"605502","office":"Katterikuppam BO","district":"PONDICHERRY","state":"PUDUCHERRY","lat":12.0,"lon":79.7,"fullAddress":"Katterikuppam BO, PONDICHERRY, PUDUCHERRY, 605502","country":"IN","stateCode":"PY"},{"pincode":"609603","office":"Melakasakudi B.O","district":"KARAIKAL","state":"PUDUCHERRY","lat":10.96,"lon":79.78,"fullAddress":"Melakasakudi B.O, KARAIKAL, PUDUCHERRY, 609603","country":"IN","stateCode":"PY"},{"pincode":"609605","office":"Karaikalmedu B.O","district":"KARAIKAL","state":"PUDUCHERRY","lat":10.94,"lon":79.85,"fullAddress":"Karaikalmedu B.O, KARAIKAL, PUDUCHERRY, 609605","country":"IN","stateCode":"PY"},{"pincode":"609607","office":"Sellur B.O","district":"KARAIKAL","state":"PUDUCHERRY","lat":10.93,"lon":79.77,"fullAddress":"Sellur B.O, KARAIKAL, PUDUCHERRY, 609607","country":"IN","stateCode":"PY"},{"pincode":"605004","office":"Mudaliarpet SO","district":"PONDICHERRY","state":"PUDUCHERRY","lat":11.9212222,"lon":79.8150556,"fullAddress":"Mudaliarpet SO, PONDICHERRY, PUDUCHERRY, 605004","country":"IN","stateCode":"PY"},{"pincode":"605501","office":"Tirukkanur SO","district":"PONDICHERRY","state":"PUDUCHERRY","lat":11.9908889,"lon":79.6442222,"fullAddress":"Tirukkanur SO, PONDICHERRY, PUDUCHERRY, 605501","country":"IN","stateCode":"PY"},{"pincode":"605004","office":"Pondicherry Courts SO","district":"PONDICHERRY","state":"PUDUCHERRY","lat":11.92,"lon":79.81,"fullAddress":"Pondicherry Courts SO, PONDICHERRY, PUDUCHERRY, 605004","country":"IN","stateCode":"PY"},{"pincode":"609602","office":"Karaikal South S.O","district":"KARAIKAL","state":"PUDUCHERRY","lat":10.92,"lon":79.83,"fullAddress":"Karaikal South S.O, KARAIKAL, PUDUCHERRY, 609602","country":"IN","stateCode":"PY"},{"pincode":"609605","office":"Thalatheru S.O","district":"KARAIKAL","state":"PUDUCHERRY","lat":10.56,"lon":79.49,"fullAddress":"Thalatheru S.O, KARAIKAL, PUDUCHERRY, 609605","country":"IN","stateCode":"PY"},{"pincode":"609606","office":"Tirumalairayanpattinam S.O","district":"KARAIKAL","state":"PUDUCHERRY","lat":10.52,"lon":79.49,"fullAddress":"Tirumalairayanpattinam S.O, KARAIKAL, PUDUCHERRY, 609606","country":"IN","stateCode":"PY"},{"pincode":"605007","office":"Karikkalampakkam BO","district":"PONDICHERRY","state":"PUDUCHERRY","lat":11.859304,"lon":79.7484,"fullAddress":"Karikkalampakkam BO, PONDICHERRY, PUDUCHERRY, 605007","country":"IN","stateCode":"PY"},{"pincode":"607402","office":"Manamedu BO","district":"PONDICHERRY","state":"PUDUCHERRY","lat":11.81,"lon":79.68,"fullAddress":"Manamedu BO, PONDICHERRY, PUDUCHERRY, 607402","country":"IN","stateCode":"PY"},{"pincode":"605004","office":"Mouroungapakkam BO","district":"PONDICHERRY","state":"PUDUCHERRY","lat":11.905124,"lon":79.808662,"fullAddress":"Mouroungapakkam BO, PONDICHERRY, PUDUCHERRY, 605004","country":"IN","stateCode":"PY"},{"pincode":"605106","office":"Karayamputhur BO","district":"PONDICHERRY","state":"PUDUCHERRY","lat":11.822064,"lon":79.653017,"fullAddress":"Karayamputhur BO, PONDICHERRY, PUDUCHERRY, 605106","country":"IN","stateCode":"PY"},{"pincode":"605106","office":"Kijour BO","district":"PONDICHERRY","state":"PUDUCHERRY","lat":11.87,"lon":79.68,"fullAddress":"Kijour BO, PONDICHERRY, PUDUCHERRY, 605106","country":"IN","stateCode":"PY"},{"pincode":"605009","office":"Vimacoundanpalayam BO","district":"PONDICHERRY","state":"PUDUCHERRY","lat":11.94,"lon":79.8,"fullAddress":"Vimacoundanpalayam BO, PONDICHERRY, PUDUCHERRY, 605009","country":"IN","stateCode":"PY"},{"pincode":"605501","office":"Sellipet BO","district":"PONDICHERRY","state":"PUDUCHERRY","lat":11.96,"lon":79.69,"fullAddress":"Sellipet BO, PONDICHERRY, PUDUCHERRY, 605501","country":"IN","stateCode":"PY"},{"pincode":"607403","office":"Pillayarkuppam BO","district":"PONDICHERRY","state":"PUDUCHERRY","lat":12.032253,"lon":79.589841,"fullAddress":"Pillayarkuppam BO, PONDICHERRY, PUDUCHERRY, 607403","country":"IN","stateCode":"PY"},{"pincode":"605107","office":"Lingareddipalayam BO","district":"PONDICHERRY","state":"PUDUCHERRY","lat":11.92,"lon":79.63,"fullAddress":"Lingareddipalayam BO, PONDICHERRY, PUDUCHERRY, 605107","country":"IN","stateCode":"PY"},{"pincode":"609602","office":"Dharmapuram B.O","district":"KARAIKAL","state":"PUDUCHERRY","lat":11.1,"lon":79.68,"fullAddress":"Dharmapuram B.O, KARAIKAL, PUDUCHERRY, 609602","country":"IN","stateCode":"PY"},{"pincode":"609609","office":"Tiruvettakudi B.O","district":"KARAIKAL","state":"PUDUCHERRY","lat":10.98,"lon":79.84,"fullAddress":"Tiruvettakudi B.O, KARAIKAL, PUDUCHERRY, 609609","country":"IN","stateCode":"PY"},{"pincode":"609609","office":"Varichikudi B.O","district":"KARAIKAL","state":"PUDUCHERRY","lat":10.99,"lon":79.82,"fullAddress":"Varichikudi B.O, KARAIKAL, PUDUCHERRY, 609609","country":"IN","stateCode":"PY"},{"pincode":"609603","office":"Kurumbagaram B.O","district":"KARAIKAL","state":"PUDUCHERRY","lat":10.98,"lon":79.77,"fullAddress":"Kurumbagaram B.O, KARAIKAL, PUDUCHERRY, 609603","country":"IN","stateCode":"PY"},{"pincode":"609604","office":"Akkaraivattam B.O","district":"KARAIKAL","state":"PUDUCHERRY","lat":10.9,"lon":79.84,"fullAddress":"Akkaraivattam B.O, KARAIKAL, PUDUCHERRY, 609604","country":"IN","stateCode":"PY"},{"pincode":"605008","office":"Lawspet SO","district":"PONDICHERRY","state":"PUDUCHERRY","lat":11.9542222,"lon":79.821,"fullAddress":"Lawspet SO, PONDICHERRY, PUDUCHERRY, 605008","country":"IN","stateCode":"PY"},{"pincode":"605005","office":"Nellithope SO","district":"PONDICHERRY","state":"PUDUCHERRY","lat":11.9293056,"lon":79.8116667,"fullAddress":"Nellithope SO, PONDICHERRY, PUDUCHERRY, 605005","country":"IN","stateCode":"PY"},{"pincode":"605014","office":"Pondicherry University SO","district":"PONDICHERRY","state":"PUDUCHERRY","lat":12.0216111,"lon":79.8548056,"fullAddress":"Pondicherry University SO, PONDICHERRY, PUDUCHERRY, 605014","country":"IN","stateCode":"PY"},{"pincode":"607403","office":"Kirumambakkam","district":"PONDICHERRY","state":"PUDUCHERRY","lat":11.9344722,"lon":79.8350556,"fullAddress":"Kirumambakkam, PONDICHERRY, PUDUCHERRY, 607403","country":"IN","stateCode":"PY"},{"pincode":"609602","office":"Karaikal Bazaar S.O","district":"KARAIKAL","state":"PUDUCHERRY","lat":10.93,"lon":79.83,"fullAddress":"Karaikal Bazaar S.O, KARAIKAL, PUDUCHERRY, 609602","country":"IN","stateCode":"PY"},{"pincode":"673310","office":"Pandakkal BO","district":"MAHE","state":"PUDUCHERRY","lat":11.76,"lon":75.54,"fullAddress":"Pandakkal BO, MAHE, PUDUCHERRY, 673310","country":"IN","stateCode":"PY"},{"pincode":"607402","office":"Manapet BO","district":"PONDICHERRY","state":"PUDUCHERRY","lat":11.800288,"lon":79.789046,"fullAddress":"Manapet BO, PONDICHERRY, PUDUCHERRY, 607402","country":"IN","stateCode":"PY"},{"pincode":"605004","office":"Thengaithittu BO","district":"PONDICHERRY","state":"PUDUCHERRY","lat":11.911688,"lon":79.817659,"fullAddress":"Thengaithittu BO, PONDICHERRY, PUDUCHERRY, 605004","country":"IN","stateCode":"PY"},{"pincode":"605014","office":"Calapet BO","district":"PONDICHERRY","state":"PUDUCHERRY","lat":12.03,"lon":79.87,"fullAddress":"Calapet BO, PONDICHERRY, PUDUCHERRY, 605014","country":"IN","stateCode":"PY"},{"pincode":"605111","office":"Sedarapet BO","district":"PONDICHERRY","state":"PUDUCHERRY","lat":11.99,"lon":79.75,"fullAddress":"Sedarapet BO, PONDICHERRY, PUDUCHERRY, 605111","country":"IN","stateCode":"PY"},{"pincode":"605102","office":"Thiruvandarkoil BO","district":"PONDICHERRY","state":"PUDUCHERRY","lat":11.92,"lon":79.66,"fullAddress":"Thiruvandarkoil BO, PONDICHERRY, PUDUCHERRY, 605102","country":"IN","stateCode":"PY"},{"pincode":"605502","office":"Suthukeni BO","district":"PONDICHERRY","state":"PUDUCHERRY","lat":12.01,"lon":79.68,"fullAddress":"Suthukeni BO, PONDICHERRY, PUDUCHERRY, 605502","country":"IN","stateCode":"PY"},{"pincode":"605502","office":"Thondamanatham BO","district":"PONDICHERRY","state":"PUDUCHERRY","lat":11.96,"lon":79.73,"fullAddress":"Thondamanatham BO, PONDICHERRY, PUDUCHERRY, 605502","country":"IN","stateCode":"PY"},{"pincode":"609601","office":"Nallambal B.O","district":"KARAIKAL","state":"PUDUCHERRY","lat":10.93,"lon":79.76,"fullAddress":"Nallambal B.O, KARAIKAL, PUDUCHERRY, 609601","country":"IN","stateCode":"PY"},{"pincode":"609601","office":"Seithur B.O","district":"KARAIKAL","state":"PUDUCHERRY","lat":10.96,"lon":79.74,"fullAddress":"Seithur B.O, KARAIKAL, PUDUCHERRY, 609601","country":"IN","stateCode":"PY"},{"pincode":"609602","office":"Madagadi B.O","district":"KARAIKAL","state":"PUDUCHERRY","lat":11.91,"lon":79.64,"fullAddress":"Madagadi B.O, KARAIKAL, PUDUCHERRY, 609602","country":"IN","stateCode":"PY"},{"pincode":"609607","office":"Karukkangudi B.O","district":"KARAIKAL","state":"PUDUCHERRY","lat":10.95,"lon":79.77,"fullAddress":"Karukkangudi B.O, KARAIKAL, PUDUCHERRY, 609607","country":"IN","stateCode":"PY"},{"pincode":"609607","office":"Surakudi B.O","district":"KARAIKAL","state":"PUDUCHERRY","lat":10.93,"lon":79.77,"fullAddress":"Surakudi B.O, KARAIKAL, PUDUCHERRY, 609607","country":"IN","stateCode":"PY"},{"pincode":"605001","office":"Pondicherry HO","district":"PONDICHERRY","state":"PUDUCHERRY","lat":11.9344722,"lon":79.8350556,"fullAddress":"Pondicherry HO, PONDICHERRY, PUDUCHERRY, 605001","country":"IN","stateCode":"PY"},{"pincode":"605006","office":"Dhanvantri Nagar SO","district":"PONDICHERRY","state":"PUDUCHERRY","lat":11.94975,"lon":79.7995556,"fullAddress":"Dhanvantri Nagar SO, PONDICHERRY, PUDUCHERRY, 605006","country":"IN","stateCode":"PY"},{"pincode":"605010","office":"Reddiarpalayam SO","district":"PONDICHERRY","state":"PUDUCHERRY","lat":11.9312778,"lon":79.7859722,"fullAddress":"Reddiarpalayam SO, PONDICHERRY, PUDUCHERRY, 605010","country":"IN","stateCode":"PY"},{"pincode":"605001","office":"Pondicherry Bazaar SO","district":"PONDICHERRY","state":"PUDUCHERRY","lat":null,"lon":null,"fullAddress":"Pondicherry Bazaar SO, PONDICHERRY, PUDUCHERRY, 605001","country":"IN","stateCode":"PY"},{"pincode":"609607","office":"Tirunallar S.O","district":"KARAIKAL","state":"PUDUCHERRY","lat":10.93,"lon":79.79,"fullAddress":"Tirunallar S.O, KARAIKAL, PUDUCHERRY, 609607","country":"IN","stateCode":"PY"}]