[{"pincode":"737120","office":"Shipgyare BO","district":"NORTH DISTRICT","state":"SIKKIM","lat":27.53,"lon":88.51,"fullAddress":"Shipgyare BO, NORTH DISTRICT, SIKKIM, 737120","country":"IN","stateCode":"SK"},{"pincode":"737107","office":"Lumlingthyang BO","district":"EAST DISTRICT","state":"SIKKIM","lat":27.53,"lon":88.51,"fullAddress":"Lumlingthyang BO, EAST DISTRICT, SIKKIM, 737107","country":"IN","stateCode":"SK"},{"pincode":"737111","office":"Arithang BO","district":"WEST DISTRICT","state":"SIKKIM","lat":27.33,"lon":88.61,"fullAddress":"Arithang BO, WEST DISTRICT, SIKKIM, 737111","country":"IN","stateCode":"SK"},{"pincode":"737111","office":"Bhaluthang BO","district":"WEST DISTRICT","state":"SIKKIM","lat":27.31,"lon":88.25,"fullAddress":"Bhaluthang BO, WEST DISTRICT, SIKKIM, 737111","country":"IN","stateCode":"SK"},{"pincode":"737111","office":"Chingthang BO","district":"WEST DISTRICT","state":"SIKKIM","lat":27.25,"lon":88.27,"fullAddress":"Chingthang BO, WEST DISTRICT, SIKKIM, 737111","country":"IN","stateCode":"SK"},{"pincode":"737111","office":"Gerathang BO","district":"WEST DISTRICT","state":"SIKKIM","lat":27.35,"lon":88.24,"fullAddress":"Gerathang BO, WEST DISTRICT, SIKKIM, 737111","country":"IN","stateCode":"SK"},{"pincode":"737111","office":"Yangthang BO","district":"WEST DISTRICT","state":"SIKKIM","lat":27.28,"lon":88.23,"fullAddress":"Yangthang BO, WEST DISTRICT, SIKKIM, 737111","country":"IN","stateCode":"SK"},{"pincode":"737116","office":"Sakyong-Pentong","district":"NORTH DISTRICT","state":"SIKKIM","lat":27.5166667,"lon":88.5333333,"fullAddress":"Sakyong-Pentong, NORTH DISTRICT, SIKKIM, 737116","country":"IN","stateCode":"SK"},{"pincode":"737128","office":"Rateypani BO","district":"SOUTH DISTRICT","state":"SIKKIM","lat":27.13,"lon":88.43,"fullAddress":"Rateypani BO, SOUTH DISTRICT, SIKKIM, 737128","country":"IN","stateCode":"SK"},{"pincode":"737134","office":"Nazitam BO","district":"EAST DISTRICT","state":"SIKKIM","lat":27.26,"lon":88.52,"fullAddress":"Nazitam BO, EAST DISTRICT, SIKKIM, 737134","country":"IN","stateCode":"SK"},{"pincode":"737126","office":"Mic Khola BO","district":"SOUTH DISTRICT","state":"SIKKIM","lat":27.53,"lon":88.51,"fullAddress":"Mic Khola BO, SOUTH DISTRICT, SIKKIM, 737126","country":"IN","stateCode":"SK"},{"pincode":"737126","office":"Pabong BO","district":"SOUTH DISTRICT","state":"SIKKIM","lat":27.2,"lon":88.36,"fullAddress":"Pabong BO, SOUTH DISTRICT, SIKKIM, 737126","country":"IN","stateCode":"SK"},{"pincode":"737121","office":"Budang BO","district":"WEST DISTRICT","state":"SIKKIM","lat":27.27,"lon":88.47,"fullAddress":"Budang BO, WEST DISTRICT, SIKKIM, 737121","country":"IN","stateCode":"SK"},{"pincode":"737121","office":"Majitar BO","district":"SOUTH DISTRICT","state":"SIKKIM","lat":27.18,"lon":88.49,"fullAddress":"Majitar BO, SOUTH DISTRICT, SIKKIM, 737121","country":"IN","stateCode":"SK"},{"pincode":"737121","office":"Pipalay BO","district":"WEST DISTRICT","state":"SIKKIM","lat":27.15,"lon":88.28,"fullAddress":"Pipalay BO, WEST DISTRICT, SIKKIM, 737121","country":"IN","stateCode":"SK"},{"pincode":"737121","office":"Sanganath BO","district":"WEST DISTRICT","state":"SIKKIM","lat":27.53,"lon":88.51,"fullAddress":"Sanganath BO, WEST DISTRICT, SIKKIM, 737121","country":"IN","stateCode":"SK"},{"pincode":"737121","office":"Sri Badam BO","district":"WEST DISTRICT","state":"SIKKIM","lat":27.2,"lon":88.2,"fullAddress":"Sri Badam BO, WEST DISTRICT, SIKKIM, 737121","country":"IN","stateCode":"SK"},{"pincode":"737106","office":"Tshalamthang BO","district":"Pakyong","state":"SIKKIM","lat":27.21,"lon":88.47,"fullAddress":"Tshalamthang BO, Pakyong, SIKKIM, 737106","country":"IN","stateCode":"SK"},{"pincode":"737113","office":"Khechuperi BO","district":"WEST DISTRICT","state":"SIKKIM","lat":27.34,"lon":88.18,"fullAddress":"Khechuperi BO, WEST DISTRICT, SIKKIM, 737113","country":"IN","stateCode":"SK"},{"pincode":"737113","office":"Namphu BO","district":"WEST DISTRICT","state":"SIKKIM","lat":27.53,"lon":88.51,"fullAddress":"Namphu BO, WEST DISTRICT, SIKKIM, 737113","country":"IN","stateCode":"SK"},{"pincode":"737113","office":"Radhu Khandu BO","district":"WEST DISTRICT","state":"SIKKIM","lat":27.53,"lon":88.51,"fullAddress":"Radhu Khandu BO, WEST DISTRICT, SIKKIM, 737113","country":"IN","stateCode":"SK"},{"pincode":"737113","office":"Uttarey BO","district":"WEST DISTRICT","state":"SIKKIM","lat":27.26,"lon":88.09,"fullAddress":"Uttarey BO, WEST DISTRICT, SIKKIM, 737113","country":"IN","stateCode":"SK"},{"pincode":"737113","office":"Yuksom BO","district":"WEST DISTRICT","state":"SIKKIM","lat":27.37,"lon":88.22,"fullAddress":"Yuksom BO, WEST DISTRICT, SIKKIM, 737113","country":"IN","stateCode":"SK"},{"pincode":"737132","office":"Duga BO","district":"Pakyong","state":"SIKKIM","lat":27.19,"lon":88.53,"fullAddress":"Duga BO, Pakyong, SIKKIM, 737132","country":"IN","stateCode":"SK"},{"pincode":"737139","office":"Sada","district":"SOUTH DISTRICT","state":"SIKKIM","lat":27.124402,"lon":88.412175,"fullAddress":"Sada, SOUTH DISTRICT, SIKKIM, 737139","country":"IN","stateCode":"SK"},{"pincode":"737132","office":"Maney Dara BO","district":"SOUTH DISTRICT","state":"SIKKIM","lat":27.53,"lon":88.51,"fullAddress":"Maney Dara BO, SOUTH DISTRICT, SIKKIM, 737132","country":"IN","stateCode":"SK"},{"pincode":"737132","office":"Namthang BO","district":"SOUTH DISTRICT","state":"SIKKIM","lat":27.16,"lon":88.47,"fullAddress":"Namthang BO, SOUTH DISTRICT, SIKKIM, 737132","country":"IN","stateCode":"SK"},{"pincode":"737103","office":"Luing BO","district":"EAST DISTRICT","state":"SIKKIM","lat":27.36,"lon":88.59,"fullAddress":"Luing BO, EAST DISTRICT, SIKKIM, 737103","country":"IN","stateCode":"SK"},{"pincode":"737139","office":"Barfung BO","district":"SOUTH DISTRICT","state":"SIKKIM","lat":27.29,"lon":88.34,"fullAddress":"Barfung BO, SOUTH DISTRICT, SIKKIM, 737139","country":"IN","stateCode":"SK"},{"pincode":"737139","office":"Berang BO","district":"SOUTH DISTRICT","state":"SIKKIM","lat":27.32,"lon":88.34,"fullAddress":"Berang BO, SOUTH DISTRICT, SIKKIM, 737139","country":"IN","stateCode":"SK"},{"pincode":"737134","office":"SANG BO","district":"EAST DISTRICT","state":"SIKKIM","lat":27.25,"lon":88.5,"fullAddress":"SANG BO, EAST DISTRICT, SIKKIM, 737134","country":"IN","stateCode":"SK"},{"pincode":"737133","office":"Rorathang BO","district":"Pakyong","state":"SIKKIM","lat":27.19,"lon":88.61,"fullAddress":"Rorathang BO, Pakyong, SIKKIM, 737133","country":"IN","stateCode":"SK"},{"pincode":"737113","office":"Hee Gaon BO","district":"Soreng","state":"SIKKIM","lat":27.25,"lon":88.19,"fullAddress":"Hee Gaon BO, Soreng, SIKKIM, 737113","country":"IN","stateCode":"SK"},{"pincode":"737135","office":"Assam Lingzey BO","district":"EAST DISTRICT","state":"SIKKIM","lat":27.26,"lon":88.66,"fullAddress":"Assam Lingzey BO, EAST DISTRICT, SIKKIM, 737135","country":"IN","stateCode":"SK"},{"pincode":"737139","office":"Kewzing BO","district":"SOUTH DISTRICT","state":"SIKKIM","lat":27.27,"lon":88.31,"fullAddress":"Kewzing BO, SOUTH DISTRICT, SIKKIM, 737139","country":"IN","stateCode":"SK"},{"pincode":"737134","office":"Namphing BO","district":"SOUTH DISTRICT","state":"SIKKIM","lat":27.22,"lon":88.48,"fullAddress":"Namphing BO, SOUTH DISTRICT, SIKKIM, 737134","country":"IN","stateCode":"SK"},{"pincode":"737134","office":"Sakhu Busty BO","district":"EAST DISTRICT","state":"SIKKIM","lat":27.2,"lon":88.51,"fullAddress":"Sakhu Busty BO, EAST DISTRICT, SIKKIM, 737134","country":"IN","stateCode":"SK"},{"pincode":"737134","office":"Sangkhola BO","district":"EAST DISTRICT","state":"SIKKIM","lat":27.24,"lon":88.52,"fullAddress":"Sangkhola BO, EAST DISTRICT, SIKKIM, 737134","country":"IN","stateCode":"SK"},{"pincode":"737133","office":"Upper Khamdong BO","district":"Pakyong","state":"SIKKIM","lat":27.17,"lon":88.66,"fullAddress":"Upper Khamdong BO, Pakyong, SIKKIM, 737133","country":"IN","stateCode":"SK"},{"pincode":"737113","office":"Thingling BO","district":"WEST DISTRICT","state":"SIKKIM","lat":27.53,"lon":88.51,"fullAddress":"Thingling BO, WEST DISTRICT, SIKKIM, 737113","country":"IN","stateCode":"SK"},{"pincode":"737134","office":"Yangyang BO","district":"SOUTH DISTRICT","state":"SIKKIM","lat":27.292,"lon":88.418,"fullAddress":"Yangyang BO, SOUTH DISTRICT, SIKKIM, 737134","country":"IN","stateCode":"SK"},{"pincode":"737102","office":"Dhajey BO","district":"EAST DISTRICT","state":"SIKKIM","lat":27.53,"lon":88.51,"fullAddress":"Dhajey BO, EAST DISTRICT, SIKKIM, 737102","country":"IN","stateCode":"SK"},{"pincode":"737139","office":"Ben BO","district":"SOUTH DISTRICT","state":"SIKKIM","lat":27.25,"lon":88.42,"fullAddress":"Ben BO, SOUTH DISTRICT, SIKKIM, 737139","country":"IN","stateCode":"SK"},{"pincode":"737107","office":"Dikchu SO","district":"EAST DISTRICT","state":"SIKKIM","lat":27.339833,"lon":88.655049,"fullAddress":"Dikchu SO, EAST DISTRICT, SIKKIM, 737107","country":"IN","stateCode":"SK"},{"pincode":"737136","office":"Majitar SO","district":"EAST DISTRICT","state":"SIKKIM","lat":27.339833,"lon":88.655049,"fullAddress":"Majitar SO, EAST DISTRICT, SIKKIM, 737136","country":"IN","stateCode":"SK"},{"pincode":"737128","office":"Melli Bazar SO","district":"SOUTH DISTRICT","state":"SIKKIM","lat":27.124402,"lon":88.412175,"fullAddress":"Melli Bazar SO, SOUTH DISTRICT, SIKKIM, 737128","country":"IN","stateCode":"SK"},{"pincode":"737126","office":"Namchi SO","district":"SOUTH DISTRICT","state":"SIKKIM","lat":27.166546,"lon":88.360689,"fullAddress":"Namchi SO, SOUTH DISTRICT, SIKKIM, 737126","country":"IN","stateCode":"SK"},{"pincode":"737113","office":"Pelling SO","district":"WEST DISTRICT","state":"SIKKIM","lat":27.338385,"lon":88.163525,"fullAddress":"Pelling SO, WEST DISTRICT, SIKKIM, 737113","country":"IN","stateCode":"SK"},{"pincode":"737131","office":"Rangli Bazar SO","district":"Pakyong","state":"SIKKIM","lat":27.339833,"lon":88.655049,"fullAddress":"Rangli Bazar SO, Pakyong, SIKKIM, 737131","country":"IN","stateCode":"SK"},{"pincode":"737134","office":"Singtam SO","district":"EAST DISTRICT","state":"SIKKIM","lat":27.232395,"lon":88.496684,"fullAddress":"Singtam SO, EAST DISTRICT, SIKKIM, 737134","country":"IN","stateCode":"SK"},{"pincode":"737120","office":"Lachen BO","district":"NORTH DISTRICT","state":"SIKKIM","lat":27.71,"lon":88.55,"fullAddress":"Lachen BO, NORTH DISTRICT, SIKKIM, 737120","country":"IN","stateCode":"SK"},{"pincode":"737107","office":"Gor BO","district":"NORTH DISTRICT","state":"SIKKIM","lat":27.43,"lon":88.49,"fullAddress":"Gor BO, NORTH DISTRICT, SIKKIM, 737107","country":"IN","stateCode":"SK"},{"pincode":"737107","office":"Raley Khesey BO","district":"EAST DISTRICT","state":"SIKKIM","lat":27.53,"lon":88.51,"fullAddress":"Raley Khesey BO, EAST DISTRICT, SIKKIM, 737107","country":"IN","stateCode":"SK"},{"pincode":"737107","office":"Samdong BO","district":"EAST DISTRICT","state":"SIKKIM","lat":27.35,"lon":88.49,"fullAddress":"Samdong BO, EAST DISTRICT, SIKKIM, 737107","country":"IN","stateCode":"SK"},{"pincode":"737111","office":"Legship BO","district":"WEST DISTRICT","state":"SIKKIM","lat":27.27,"lon":88.27,"fullAddress":"Legship BO, WEST DISTRICT, SIKKIM, 737111","country":"IN","stateCode":"SK"},{"pincode":"737111","office":"Lingchom BO","district":"WEST DISTRICT","state":"SIKKIM","lat":27.53,"lon":88.51,"fullAddress":"Lingchom BO, WEST DISTRICT, SIKKIM, 737111","country":"IN","stateCode":"SK"},{"pincode":"737111","office":"Tashiding BO","district":"WEST DISTRICT","state":"SIKKIM","lat":27.3,"lon":88.29,"fullAddress":"Tashiding BO, WEST DISTRICT, SIKKIM, 737111","country":"IN","stateCode":"SK"},{"pincode":"737111","office":"Yangtey BO","district":"WEST DISTRICT","state":"SIKKIM","lat":27.29,"lon":88.27,"fullAddress":"Yangtey BO, WEST DISTRICT, SIKKIM, 737111","country":"IN","stateCode":"SK"},{"pincode":"737116","office":"Lingdem BO","district":"NORTH DISTRICT","state":"SIKKIM","lat":27.54,"lon":88.45,"fullAddress":"Lingdem BO, NORTH DISTRICT, SIKKIM, 737116","country":"IN","stateCode":"SK"},{"pincode":"737116","office":"Lower Dzongu BO","district":"NORTH DISTRICT","state":"SIKKIM","lat":27.5,"lon":88.43,"fullAddress":"Lower Dzongu BO, NORTH DISTRICT, SIKKIM, 737116","country":"IN","stateCode":"SK"},{"pincode":"737116","office":"Namok BO","district":"NORTH DISTRICT","state":"SIKKIM","lat":27.44,"lon":88.53,"fullAddress":"Namok BO, NORTH DISTRICT, SIKKIM, 737116","country":"IN","stateCode":"SK"},{"pincode":"737101","office":"Gangtok HO","district":"EAST DISTRICT","state":"SIKKIM","lat":27.33225,"lon":88.6140278,"fullAddress":"Gangtok HO, EAST DISTRICT, SIKKIM, 737101","country":"IN","stateCode":"SK"},{"pincode":"737116","office":"Tingvong BO","district":"NORTH DISTRICT","state":"SIKKIM","lat":27.55,"lon":88.47,"fullAddress":"Tingvong BO, NORTH DISTRICT, SIKKIM, 737116","country":"IN","stateCode":"SK"},{"pincode":"737116","office":"Phensong BO","district":"NORTH DISTRICT","state":"SIKKIM","lat":27.41,"lon":88.6,"fullAddress":"Phensong BO, NORTH DISTRICT, SIKKIM, 737116","country":"IN","stateCode":"SK"},{"pincode":"737128","office":"Manpur BO","district":"SOUTH DISTRICT","state":"SIKKIM","lat":27.11,"lon":88.37,"fullAddress":"Manpur BO, SOUTH DISTRICT, SIKKIM, 737128","country":"IN","stateCode":"SK"},{"pincode":"737128","office":"Sumbuk BO","district":"SOUTH DISTRICT","state":"SIKKIM","lat":27.09,"lon":88.38,"fullAddress":"Sumbuk BO, SOUTH DISTRICT, SIKKIM, 737128","country":"IN","stateCode":"SK"},{"pincode":"737126","office":"Kitam BO","district":"SOUTH DISTRICT","state":"SIKKIM","lat":27.12,"lon":88.35,"fullAddress":"Kitam BO, SOUTH DISTRICT, SIKKIM, 737126","country":"IN","stateCode":"SK"},{"pincode":"737126","office":"Maniram BO","district":"SOUTH DISTRICT","state":"SIKKIM","lat":27.15,"lon":88.4,"fullAddress":"Maniram BO, SOUTH DISTRICT, SIKKIM, 737126","country":"IN","stateCode":"SK"},{"pincode":"737134","office":"Dipudara Nhpc Complex BO","district":"EAST DISTRICT","state":"SIKKIM","lat":27.25,"lon":88.46,"fullAddress":"Dipudara Nhpc Complex BO, EAST DISTRICT, SIKKIM, 737134","country":"IN","stateCode":"SK"},{"pincode":"737126","office":"Phalidara BO","district":"SOUTH DISTRICT","state":"SIKKIM","lat":27.16,"lon":88.38,"fullAddress":"Phalidara BO, SOUTH DISTRICT, SIKKIM, 737126","country":"IN","stateCode":"SK"},{"pincode":"737131","office":"Lingtam BO","district":"Pakyong","state":"SIKKIM","lat":27.23,"lon":88.75,"fullAddress":"Lingtam BO, Pakyong, SIKKIM, 737131","country":"IN","stateCode":"SK"},{"pincode":"737126","office":"Sorok BO","district":"SOUTH DISTRICT","state":"SIKKIM","lat":27.12,"lon":88.34,"fullAddress":"Sorok BO, SOUTH DISTRICT, SIKKIM, 737126","country":"IN","stateCode":"SK"},{"pincode":"737126","office":"Wok BO","district":"SOUTH DISTRICT","state":"SIKKIM","lat":27.32,"lon":88.61,"fullAddress":"Wok BO, SOUTH DISTRICT, SIKKIM, 737126","country":"IN","stateCode":"SK"},{"pincode":"737121","office":"Buriakhop BO","district":"WEST DISTRICT","state":"SIKKIM","lat":27.17,"lon":88.15,"fullAddress":"Buriakhop BO, WEST DISTRICT, SIKKIM, 737121","country":"IN","stateCode":"SK"},{"pincode":"737121","office":"Chakung BO","district":"WEST DISTRICT","state":"SIKKIM","lat":27.15,"lon":88.24,"fullAddress":"Chakung BO, WEST DISTRICT, SIKKIM, 737121","country":"IN","stateCode":"SK"},{"pincode":"737121","office":"Okharey BO","district":"WEST DISTRICT","state":"SIKKIM","lat":27.14,"lon":88.1,"fullAddress":"Okharey BO, WEST DISTRICT, SIKKIM, 737121","country":"IN","stateCode":"SK"},{"pincode":"737121","office":"Soreng BO","district":"WEST DISTRICT","state":"SIKKIM","lat":27.16,"lon":88.19,"fullAddress":"Soreng BO, WEST DISTRICT, SIKKIM, 737121","country":"IN","stateCode":"SK"},{"pincode":"737121","office":"Sombaria BO","district":"WEST DISTRICT","state":"SIKKIM","lat":27.14,"lon":88.14,"fullAddress":"Sombaria BO, WEST DISTRICT, SIKKIM, 737121","country":"IN","stateCode":"SK"},{"pincode":"737133","office":"Rhenock SO","district":"Pakyong","state":"SIKKIM","lat":27.339833,"lon":88.655049,"fullAddress":"Rhenock SO, Pakyong, SIKKIM, 737133","country":"IN","stateCode":"SK"},{"pincode":"737106","office":"Linkey BO","district":"Pakyong","state":"SIKKIM","lat":27.23,"lon":88.65,"fullAddress":"Linkey BO, Pakyong, SIKKIM, 737106","country":"IN","stateCode":"SK"},{"pincode":"737135","office":"Nandok BO","district":"EAST DISTRICT","state":"SIKKIM","lat":27.29,"lon":88.61,"fullAddress":"Nandok BO, EAST DISTRICT, SIKKIM, 737135","country":"IN","stateCode":"SK"},{"pincode":"737134","office":"Temi Tarku BO","district":"SOUTH DISTRICT","state":"SIKKIM","lat":27.239,"lon":88.427,"fullAddress":"Temi Tarku BO, SOUTH DISTRICT, SIKKIM, 737134","country":"IN","stateCode":"SK"},{"pincode":"737134","office":"Sumin BO","district":"EAST DISTRICT","state":"SIKKIM","lat":27.53,"lon":88.51,"fullAddress":"Sumin BO, EAST DISTRICT, SIKKIM, 737134","country":"IN","stateCode":"SK"},{"pincode":"737103","office":"Bhusuk BO","district":"EAST DISTRICT","state":"SIKKIM","lat":27.35,"lon":88.67,"fullAddress":"Bhusuk BO, EAST DISTRICT, SIKKIM, 737103","country":"IN","stateCode":"SK"},{"pincode":"737103","office":"Bojoghari BO","district":"NORTH DISTRICT","state":"SIKKIM","lat":27.37,"lon":88.61,"fullAddress":"Bojoghari BO, NORTH DISTRICT, SIKKIM, 737103","country":"IN","stateCode":"SK"},{"pincode":"737126","office":"Damthang BO","district":"SOUTH DISTRICT","state":"SIKKIM","lat":27.23,"lon":88.38,"fullAddress":"Damthang BO, SOUTH DISTRICT, SIKKIM, 737126","country":"IN","stateCode":"SK"},{"pincode":"737131","office":"Dalapchand BO","district":"Pakyong","state":"SIKKIM","lat":27.19,"lon":88.67,"fullAddress":"Dalapchand BO, Pakyong, SIKKIM, 737131","country":"IN","stateCode":"SK"},{"pincode":"737131","office":"North Regu BO","district":"Pakyong","state":"SIKKIM","lat":27.53,"lon":88.51,"fullAddress":"North Regu BO, Pakyong, SIKKIM, 737131","country":"IN","stateCode":"SK"},{"pincode":"737132","office":"East Pendam BO","district":"Pakyong","state":"SIKKIM","lat":27.2,"lon":88.56,"fullAddress":"East Pendam BO, Pakyong, SIKKIM, 737132","country":"IN","stateCode":"SK"},{"pincode":"737132","office":"Kateng Bokrang BO","district":"SOUTH DISTRICT","state":"SIKKIM","lat":27.12,"lon":88.46,"fullAddress":"Kateng Bokrang BO, SOUTH DISTRICT, SIKKIM, 737132","country":"IN","stateCode":"SK"},{"pincode":"737135","office":"Rauteyrumtek BO","district":"EAST DISTRICT","state":"SIKKIM","lat":27.3,"lon":88.57,"fullAddress":"Rauteyrumtek BO, EAST DISTRICT, SIKKIM, 737135","country":"IN","stateCode":"SK"},{"pincode":"737132","office":"Turung BO","district":"SOUTH DISTRICT","state":"SIKKIM","lat":27.14,"lon":88.49,"fullAddress":"Turung BO, SOUTH DISTRICT, SIKKIM, 737132","country":"IN","stateCode":"SK"},{"pincode":"737135","office":"Samlickmarchak BO","district":"EAST DISTRICT","state":"SIKKIM","lat":27.28,"lon":88.58,"fullAddress":"Samlickmarchak BO, EAST DISTRICT, SIKKIM, 737135","country":"IN","stateCode":"SK"},{"pincode":"737135","office":"Upper Martam BO","district":"EAST DISTRICT","state":"SIKKIM","lat":27.26,"lon":88.55,"fullAddress":"Upper Martam BO, EAST DISTRICT, SIKKIM, 737135","country":"IN","stateCode":"SK"},{"pincode":"737139","office":"Phamtam BO","district":"SOUTH DISTRICT","state":"SIKKIM","lat":27.28,"lon":88.39,"fullAddress":"Phamtam BO, SOUTH DISTRICT, SIKKIM, 737139","country":"IN","stateCode":"SK"},{"pincode":"737133","office":"Aritar BO","district":"Pakyong","state":"SIKKIM","lat":27.18,"lon":88.67,"fullAddress":"Aritar BO, Pakyong, SIKKIM, 737133","country":"IN","stateCode":"SK"},{"pincode":"737139","office":"Ravangla SO","district":"SOUTH DISTRICT","state":"SIKKIM","lat":27.124402,"lon":88.412175,"fullAddress":"Ravangla SO, SOUTH DISTRICT, SIKKIM, 737139","country":"IN","stateCode":"SK"},{"pincode":"737134","office":"Lingmoo BO","district":"SOUTH DISTRICT","state":"SIKKIM","lat":27.335,"lon":88.477,"fullAddress":"Lingmoo BO, SOUTH DISTRICT, SIKKIM, 737134","country":"IN","stateCode":"SK"},{"pincode":"737102","office":"Kyanglasha BO","district":"EAST DISTRICT","state":"SIKKIM","lat":27.53,"lon":88.51,"fullAddress":"Kyanglasha BO, EAST DISTRICT, SIKKIM, 737102","country":"IN","stateCode":"SK"},{"pincode":"737102","office":"Pabyiok BO","district":"EAST DISTRICT","state":"SIKKIM","lat":27.53,"lon":88.51,"fullAddress":"Pabyiok BO, EAST DISTRICT, SIKKIM, 737102","country":"IN","stateCode":"SK"},{"pincode":"737131","office":"Phadamchen BO","district":"Pakyong","state":"SIKKIM","lat":27.23,"lon":88.76,"fullAddress":"Phadamchen BO, Pakyong, SIKKIM, 737131","country":"IN","stateCode":"SK"},{"pincode":"737135","office":"Ranipool SO","district":"EAST DISTRICT","state":"SIKKIM","lat":27.339833,"lon":88.655049,"fullAddress":"Ranipool SO, EAST DISTRICT, SIKKIM, 737135","country":"IN","stateCode":"SK"},{"pincode":"737102","office":"SMUSikkim Manipal University","district":"EAST DISTRICT","state":"SIKKIM","lat":27.33225,"lon":88.6140278,"fullAddress":"SMUSikkim Manipal University, EAST DISTRICT, SIKKIM, 737102","country":"IN","stateCode":"SK"},{"pincode":"737103","office":"Rajbhawan SO East Sikkim","district":"EAST DISTRICT","state":"SIKKIM","lat":27.339833,"lon":88.655049,"fullAddress":"Rajbhawan SO East Sikkim, EAST DISTRICT, SIKKIM, 737103","country":"IN","stateCode":"SK"},{"pincode":"737106","office":"Namcheybong BO","district":"Pakyong","state":"SIKKIM","lat":27.53,"lon":88.51,"fullAddress":"Namcheybong BO, Pakyong, SIKKIM, 737106","country":"IN","stateCode":"SK"},{"pincode":"737116","office":"Lingthem BO","district":"NORTH DISTRICT","state":"SIKKIM","lat":27.52,"lon":88.5,"fullAddress":"Lingthem BO, NORTH DISTRICT, SIKKIM, 737116","country":"IN","stateCode":"SK"},{"pincode":"737101","office":"Sichey Gaon SO","district":"EAST DISTRICT","state":"SIKKIM","lat":27.33,"lon":88.6,"fullAddress":"Sichey Gaon SO, EAST DISTRICT, SIKKIM, 737101","country":"IN","stateCode":"SK"},{"pincode":"737116","office":"Phamtam BO","district":"NORTH DISTRICT","state":"SIKKIM","lat":27.82,"lon":88.55,"fullAddress":"Phamtam BO, NORTH DISTRICT, SIKKIM, 737116","country":"IN","stateCode":"SK"},{"pincode":"737135","office":"Raymindu BO","district":"EAST DISTRICT","state":"SIKKIM","lat":27.53,"lon":88.51,"fullAddress":"Raymindu BO, EAST DISTRICT, SIKKIM, 737135","country":"IN","stateCode":"SK"},{"pincode":"737120","office":"Chungthang SO","district":"NORTH DISTRICT","state":"SIKKIM","lat":27.5184494,"lon":88.5371958,"fullAddress":"Chungthang SO, NORTH DISTRICT, SIKKIM, 737120","country":"IN","stateCode":"SK"},{"pincode":"737128","office":"Melli Dara BO","district":"SOUTH DISTRICT","state":"SIKKIM","lat":27.1,"lon":88.42,"fullAddress":"Melli Dara BO, SOUTH DISTRICT, SIKKIM, 737128","country":"IN","stateCode":"SK"},{"pincode":"737128","office":"Payiong BO","district":"SOUTH DISTRICT","state":"SIKKIM","lat":27.53,"lon":88.51,"fullAddress":"Payiong BO, SOUTH DISTRICT, SIKKIM, 737128","country":"IN","stateCode":"SK"},{"pincode":"737126","office":"Assangthang BO","district":"SOUTH DISTRICT","state":"SIKKIM","lat":27.14,"lon":88.33,"fullAddress":"Assangthang BO, SOUTH DISTRICT, SIKKIM, 737126","country":"IN","stateCode":"SK"},{"pincode":"737126","office":"Poklok BO","district":"SOUTH DISTRICT","state":"SIKKIM","lat":27.16,"lon":88.32,"fullAddress":"Poklok BO, SOUTH DISTRICT, SIKKIM, 737126","country":"IN","stateCode":"SK"},{"pincode":"737126","office":"Shalghari BO","district":"SOUTH DISTRICT","state":"SIKKIM","lat":27.13,"lon":88.28,"fullAddress":"Shalghari BO, SOUTH DISTRICT, SIKKIM, 737126","country":"IN","stateCode":"SK"},{"pincode":"737139","office":"Lunsing BO","district":"SOUTH DISTRICT","state":"SIKKIM","lat":27.53,"lon":88.51,"fullAddress":"Lunsing BO, SOUTH DISTRICT, SIKKIM, 737139","country":"IN","stateCode":"SK"},{"pincode":"737134","office":"Neya BO","district":"SOUTH DISTRICT","state":"SIKKIM","lat":27.53,"lon":88.51,"fullAddress":"Neya BO, SOUTH DISTRICT, SIKKIM, 737134","country":"IN","stateCode":"SK"},{"pincode":"737133","office":"Amba BO","district":"Pakyong","state":"SIKKIM","lat":27.21,"lon":88.63,"fullAddress":"Amba BO, Pakyong, SIKKIM, 737133","country":"IN","stateCode":"SK"},{"pincode":"737121","office":"Timburbong BO","district":"WEST DISTRICT","state":"SIKKIM","lat":27.17,"lon":88.19,"fullAddress":"Timburbong BO, WEST DISTRICT, SIKKIM, 737121","country":"IN","stateCode":"SK"},{"pincode":"737134","office":"Lingee BO","district":"EAST DISTRICT","state":"SIKKIM","lat":27.37,"lon":88.44,"fullAddress":"Lingee BO, EAST DISTRICT, SIKKIM, 737134","country":"IN","stateCode":"SK"},{"pincode":"737106","office":"Changayshanti BO","district":"Pakyong","state":"SIKKIM","lat":27.53,"lon":88.51,"fullAddress":"Changayshanti BO, Pakyong, SIKKIM, 737106","country":"IN","stateCode":"SK"},{"pincode":"737116","office":"Mangan SO","district":"NORTH DISTRICT","state":"SIKKIM","lat":27.5166667,"lon":88.5333333,"fullAddress":"Mangan SO, NORTH DISTRICT, SIKKIM, 737116","country":"IN","stateCode":"SK"},{"pincode":"737113","office":"Mechi Aching BO","district":"WEST DISTRICT","state":"SIKKIM","lat":27.53,"lon":88.51,"fullAddress":"Mechi Aching BO, WEST DISTRICT, SIKKIM, 737113","country":"IN","stateCode":"SK"},{"pincode":"737132","office":"Rangpo SO","district":"Pakyong","state":"SIKKIM","lat":27.339833,"lon":88.655049,"fullAddress":"Rangpo SO, Pakyong, SIKKIM, 737132","country":"IN","stateCode":"SK"},{"pincode":"737132","office":"Upper Pendam BO","district":"Pakyong","state":"SIKKIM","lat":27.21,"lon":88.51,"fullAddress":"Upper Pendam BO, Pakyong, SIKKIM, 737132","country":"IN","stateCode":"SK"},{"pincode":"737135","office":"Ahoo Busty BO","district":"EAST DISTRICT","state":"SIKKIM","lat":27.53,"lon":88.51,"fullAddress":"Ahoo Busty BO, EAST DISTRICT, SIKKIM, 737135","country":"IN","stateCode":"SK"},{"pincode":"737134","office":"Tarku BO","district":"SOUTH DISTRICT","state":"SIKKIM","lat":27.254,"lon":88.438,"fullAddress":"Tarku BO, SOUTH DISTRICT, SIKKIM, 737134","country":"IN","stateCode":"SK"},{"pincode":"737139","office":"Sangmoo BO","district":"SOUTH DISTRICT","state":"SIKKIM","lat":27.53,"lon":88.51,"fullAddress":"Sangmoo BO, SOUTH DISTRICT, SIKKIM, 737139","country":"IN","stateCode":"SK"},{"pincode":"737139","office":"Tingmoo BO","district":"SOUTH DISTRICT","state":"SIKKIM","lat":27.33,"lon":88.47,"fullAddress":"Tingmoo BO, SOUTH DISTRICT, SIKKIM, 737139","country":"IN","stateCode":"SK"},{"pincode":"737106","office":"Parkha BO","district":"Pakyong","state":"SIKKIM","lat":27.24,"lon":88.66,"fullAddress":"Parkha BO, Pakyong, SIKKIM, 737106","country":"IN","stateCode":"SK"},{"pincode":"737134","office":"Bardang BO","district":"EAST DISTRICT","state":"SIKKIM","lat":27.21,"lon":88.49,"fullAddress":"Bardang BO, EAST DISTRICT, SIKKIM, 737134","country":"IN","stateCode":"SK"},{"pincode":"737134","office":"Bermiok BO","district":"SOUTH DISTRICT","state":"SIKKIM","lat":27.24,"lon":88.23,"fullAddress":"Bermiok BO, SOUTH DISTRICT, SIKKIM, 737134","country":"IN","stateCode":"SK"},{"pincode":"737134","office":"Beyong BO","district":"EAST DISTRICT","state":"SIKKIM","lat":27.53,"lon":88.51,"fullAddress":"Beyong BO, EAST DISTRICT, SIKKIM, 737134","country":"IN","stateCode":"SK"},{"pincode":"737102","office":"Samdur BO","district":"EAST DISTRICT","state":"SIKKIM","lat":27.29,"lon":88.59,"fullAddress":"Samdur BO, EAST DISTRICT, SIKKIM, 737102","country":"IN","stateCode":"SK"},{"pincode":"737128","office":"Turuk BO","district":"SOUTH DISTRICT","state":"SIKKIM","lat":27.1,"lon":88.4,"fullAddress":"Turuk BO, SOUTH DISTRICT, SIKKIM, 737128","country":"IN","stateCode":"SK"},{"pincode":"737102","office":"Sherathang BO","district":"EAST DISTRICT","state":"SIKKIM","lat":27.37,"lon":88.81,"fullAddress":"Sherathang BO, EAST DISTRICT, SIKKIM, 737102","country":"IN","stateCode":"SK"},{"pincode":"737102","office":"Deorali SO","district":"EAST DISTRICT","state":"SIKKIM","lat":27.31,"lon":88.6,"fullAddress":"Deorali SO, EAST DISTRICT, SIKKIM, 737102","country":"IN","stateCode":"SK"},{"pincode":"737107","office":"Rakdong BO","district":"EAST DISTRICT","state":"SIKKIM","lat":27.38,"lon":88.52,"fullAddress":"Rakdong BO, EAST DISTRICT, SIKKIM, 737107","country":"IN","stateCode":"SK"},{"pincode":"737111","office":"Rangship BO","district":"WEST DISTRICT","state":"SIKKIM","lat":27.28,"lon":88.28,"fullAddress":"Rangship BO, WEST DISTRICT, SIKKIM, 737111","country":"IN","stateCode":"SK"},{"pincode":"737116","office":"Rangrang BO","district":"NORTH DISTRICT","state":"SIKKIM","lat":27.47,"lon":88.52,"fullAddress":"Rangrang BO, NORTH DISTRICT, SIKKIM, 737116","country":"IN","stateCode":"SK"},{"pincode":"737111","office":"Sinek BO","district":"WEST DISTRICT","state":"SIKKIM","lat":27.53,"lon":88.51,"fullAddress":"Sinek BO, WEST DISTRICT, SIKKIM, 737111","country":"IN","stateCode":"SK"},{"pincode":"737103","office":"Penlong BO","district":"NORTH DISTRICT","state":"SIKKIM","lat":27.37,"lon":88.62,"fullAddress":"Penlong BO, NORTH DISTRICT, SIKKIM, 737103","country":"IN","stateCode":"SK"},{"pincode":"737134","office":"Gangkha Busty BO","district":"EAST DISTRICT","state":"SIKKIM","lat":27.33,"lon":88.6,"fullAddress":"Gangkha Busty BO, EAST DISTRICT, SIKKIM, 737134","country":"IN","stateCode":"SK"},{"pincode":"737113","office":"Rimbi BO","district":"WEST DISTRICT","state":"SIKKIM","lat":27.31,"lon":88.18,"fullAddress":"Rimbi BO, WEST DISTRICT, SIKKIM, 737113","country":"IN","stateCode":"SK"},{"pincode":"737116","office":"Kabi BO","district":"NORTH DISTRICT","state":"SIKKIM","lat":27.4,"lon":88.61,"fullAddress":"Kabi BO, NORTH DISTRICT, SIKKIM, 737116","country":"IN","stateCode":"SK"},{"pincode":"737128","office":"Kerabari BO","district":"SOUTH DISTRICT","state":"SIKKIM","lat":27.08,"lon":88.43,"fullAddress":"Kerabari BO, SOUTH DISTRICT, SIKKIM, 737128","country":"IN","stateCode":"SK"},{"pincode":"737126","office":"Nandugaon BO","district":"SOUTH DISTRICT","state":"SIKKIM","lat":27.16,"lon":88.3,"fullAddress":"Nandugaon BO, SOUTH DISTRICT, SIKKIM, 737126","country":"IN","stateCode":"SK"},{"pincode":"737126","office":"Rong BO","district":"SOUTH DISTRICT","state":"SIKKIM","lat":27.11,"lon":88.36,"fullAddress":"Rong BO, SOUTH DISTRICT, SIKKIM, 737126","country":"IN","stateCode":"SK"},{"pincode":"737135","office":"Middle Camp BO","district":"EAST DISTRICT","state":"SIKKIM","lat":27.26,"lon":88.56,"fullAddress":"Middle Camp BO, EAST DISTRICT, SIKKIM, 737135","country":"IN","stateCode":"SK"},{"pincode":"737113","office":"Singrangpung","district":"WEST DISTRICT","state":"SIKKIM","lat":27.338385,"lon":88.163525,"fullAddress":"Singrangpung, WEST DISTRICT, SIKKIM, 737113","country":"IN","stateCode":"SK"}]