[{"pincode":"625108","office":"Kodukkampatti BO","district":"MADURAI","state":"TAMIL NADU","lat":10.114635,"lon":78.400575,"fullAddress":"Kodukkampatti BO, MADURAI, TAMIL NADU, 625108","country":"IN","stateCode":"TN"},{"pincode":"623502","office":"Achunthanvayal SO","district":"RAMANATHAPURAM","state":"TAMIL NADU","lat":9.36951,"lon":78.798717,"fullAddress":"Achunthanvayal SO, RAMANATHAPURAM, TAMIL NADU, 623502","country":"IN","stateCode":"TN"},{"pincode":"632104","office":"Vallandramam B.O","district":"VELLORE","state":"TAMIL NADU","lat":12.9016,"lon":79.0111,"fullAddress":"Vallandramam B.O, VELLORE, TAMIL NADU, 632104","country":"IN","stateCode":"TN"},{"pincode":"642154","office":"Pukkulam B.O","district":"TIRUPPUR","state":"TAMIL NADU","lat":null,"lon":null,"fullAddress":"Pukkulam B.O, TIRUPPUR, TAMIL NADU, 642154","country":"IN","stateCode":"TN"},{"pincode":"627358","office":"Senthimangalam BO","district":"TIRUNELVELI","state":"TAMIL NADU","lat":8.753689,"lon":77.72494,"fullAddress":"Senthimangalam BO, TIRUNELVELI, TAMIL NADU, 627358","country":"IN","stateCode":"TN"},{"pincode":"628622","office":"Cherakulam B.O","district":"TUTICORIN","state":"TAMIL NADU","lat":8.577219,"lon":77.821567,"fullAddress":"Cherakulam B.O, TUTICORIN, TAMIL NADU, 628622","country":"IN","stateCode":"TN"},{"pincode":"628906","office":"Vembar S.O","district":"TUTICORIN","state":"TAMIL NADU","lat":9.0688,"lon":78.3341,"fullAddress":"Vembar S.O, TUTICORIN, TAMIL NADU, 628906","country":"IN","stateCode":"TN"},{"pincode":"636452","office":"Madayankuttai S.O","district":"SALEM","state":"TAMIL NADU","lat":11.769236,"lon":77.79491,"fullAddress":"Madayankuttai S.O, SALEM, TAMIL NADU, 636452","country":"IN","stateCode":"TN"},{"pincode":"636140","office":"Odayapatti S.O","district":"SALEM","state":"TAMIL NADU","lat":11.665577,"lon":78.213593,"fullAddress":"Odayapatti S.O, SALEM, TAMIL NADU, 636140","country":"IN","stateCode":"TN"},{"pincode":"604207","office":"Thaniyal BO","district":"VILLUPURAM","state":"TAMIL NADU","lat":12.31,"lon":79.56,"fullAddress":"Thaniyal BO, VILLUPURAM, TAMIL NADU, 604207","country":"IN","stateCode":"TN"},{"pincode":"628701","office":"Chettikulam B.O","district":"TUTICORIN","state":"TAMIL NADU","lat":8.484536,"lon":77.897461,"fullAddress":"Chettikulam B.O, TUTICORIN, TAMIL NADU, 628701","country":"IN","stateCode":"TN"},{"pincode":"632202","office":"Sozhamur B.O","district":"VELLORE","state":"TAMIL NADU","lat":12.9386,"lon":79.0538,"fullAddress":"Sozhamur B.O, VELLORE, TAMIL NADU, 632202","country":"IN","stateCode":"TN"},{"pincode":"642112","office":"Jallipatti B.O","district":"TIRUPPUR","state":"TAMIL NADU","lat":11.077,"lon":77.51845,"fullAddress":"Jallipatti B.O, TIRUPPUR, TAMIL NADU, 642112","country":"IN","stateCode":"TN"},{"pincode":"623516","office":"Pirappanvalasai BO","district":"RAMANATHAPURAM","state":"TAMIL NADU","lat":9.3,"lon":79.02,"fullAddress":"Pirappanvalasai BO, RAMANATHAPURAM, TAMIL NADU, 623516","country":"IN","stateCode":"TN"},{"pincode":"621008","office":"T.Narasingapuram B.O","district":"TIRUCHIRAPPALLI","state":"TAMIL NADU","lat":11.23,"lon":78.59,"fullAddress":"T.Narasingapuram B.O, TIRUCHIRAPPALLI, TAMIL NADU, 621008","country":"IN","stateCode":"TN"},{"pincode":"624202","office":"GThummalapatti BO","district":"DINDIGUL","state":"TAMIL NADU","lat":10.19,"lon":77.71,"fullAddress":"GThummalapatti BO, DINDIGUL, TAMIL NADU, 624202","country":"IN","stateCode":"TN"},{"pincode":"643225","office":"Rockwood Estate B.O","district":"THE NILGIRIS","state":"TAMIL NADU","lat":11.56,"lon":76.41,"fullAddress":"Rockwood Estate B.O, THE NILGIRIS, TAMIL NADU, 643225","country":"IN","stateCode":"TN"},{"pincode":"623514","office":"Devipattinam SO","district":"RAMANATHAPURAM","state":"TAMIL NADU","lat":9.472083,"lon":78.893459,"fullAddress":"Devipattinam SO, RAMANATHAPURAM, TAMIL NADU, 623514","country":"IN","stateCode":"TN"},{"pincode":"641007","office":"Seeranaickenpalayam BO","district":"COIMBATORE","state":"TAMIL NADU","lat":11.0104946,"lon":76.9308916,"fullAddress":"Seeranaickenpalayam BO, COIMBATORE, TAMIL NADU, 641007","country":"IN","stateCode":"TN"},{"pincode":"602023","office":"Odappai B.O","district":"THIRUVALLUR","state":"TAMIL NADU","lat":13.21055,"lon":79.79658,"fullAddress":"Odappai B.O, THIRUVALLUR, TAMIL NADU, 602023","country":"IN","stateCode":"TN"},{"pincode":"602021","office":"Perattur B.O","district":"THIRUVALLUR","state":"TAMIL NADU","lat":13.1885,"lon":79.9396,"fullAddress":"Perattur B.O, THIRUVALLUR, TAMIL NADU, 602021","country":"IN","stateCode":"TN"},{"pincode":"621714","office":"Adhikudikadu BO","district":"Ariyalur","state":"TAMIL NADU","lat":11.23,"lon":79.18,"fullAddress":"Adhikudikadu BO, Ariyalur, TAMIL NADU, 621714","country":"IN","stateCode":"TN"},{"pincode":"600083","office":"Ashoknagar S.O (Chennai)","district":"CHENNAI","state":"TAMIL NADU","lat":13.0453611,"lon":80.2376111,"fullAddress":"Ashoknagar S.O (Chennai), CHENNAI, TAMIL NADU, 600083","country":"IN","stateCode":"TN"},{"pincode":"621313","office":"Puthur B.O","district":"KARUR","state":"TAMIL NADU","lat":10.77,"lon":78.49,"fullAddress":"Puthur B.O, KARUR, TAMIL NADU, 621313","country":"IN","stateCode":"TN"},{"pincode":"625512","office":"Rosanampatti B.O","district":"THENI","state":"TAMIL NADU","lat":9.9779,"lon":77.5747,"fullAddress":"Rosanampatti B.O, THENI, TAMIL NADU, 625512","country":"IN","stateCode":"TN"},{"pincode":"603306","office":"Morapakkam BO","district":"CHENGALPATTU","state":"TAMIL NADU","lat":12.5102266,"lon":79.8849254,"fullAddress":"Morapakkam BO, CHENGALPATTU, TAMIL NADU, 603306","country":"IN","stateCode":"TN"},{"pincode":"638459","office":"Nochikuttai BO","district":"ERODE","state":"TAMIL NADU","lat":11.334572,"lon":77.167085,"fullAddress":"Nochikuttai BO, ERODE, TAMIL NADU, 638459","country":"IN","stateCode":"TN"},{"pincode":"638402","office":"Rangasamudram SO","district":"ERODE","state":"TAMIL NADU","lat":11.498585,"lon":77.243383,"fullAddress":"Rangasamudram SO, ERODE, TAMIL NADU, 638402","country":"IN","stateCode":"TN"},{"pincode":"638101","office":"Koothampatti BO","district":"ERODE","state":"TAMIL NADU","lat":11.1370283,"lon":77.7078828,"fullAddress":"Koothampatti BO, ERODE, TAMIL NADU, 638101","country":"IN","stateCode":"TN"},{"pincode":"632319","office":"Mottakkal BO","district":"VELLORE","state":"TAMIL NADU","lat":12.7732,"lon":79.1842,"fullAddress":"Mottakkal BO, VELLORE, TAMIL NADU, 632319","country":"IN","stateCode":"TN"},{"pincode":"624707","office":"Vannampatti BO","district":"DINDIGUL","state":"TAMIL NADU","lat":10.32,"lon":77.87,"fullAddress":"Vannampatti BO, DINDIGUL, TAMIL NADU, 624707","country":"IN","stateCode":"TN"},{"pincode":"635814","office":"Alankuppam B.O","district":"Tirupathur","state":"TAMIL NADU","lat":12.754791,"lon":78.695934,"fullAddress":"Alankuppam B.O, Tirupathur, TAMIL NADU, 635814","country":"IN","stateCode":"TN"},{"pincode":"609202","office":"Manalmedu East B.O","district":"MAYILADUTHURAI","state":"TAMIL NADU","lat":11.2,"lon":79.6,"fullAddress":"Manalmedu East B.O, MAYILADUTHURAI, TAMIL NADU, 609202","country":"IN","stateCode":"TN"},{"pincode":"605501","office":"Radhapuram BO","district":"VILLUPURAM","state":"TAMIL NADU","lat":12.0,"lon":79.58,"fullAddress":"Radhapuram BO, VILLUPURAM, TAMIL NADU, 605501","country":"IN","stateCode":"TN"},{"pincode":"603103","office":"Kelambakkam SO","district":"CHENGALPATTU","state":"TAMIL NADU","lat":12.1184444,"lon":80.3719167,"fullAddress":"Kelambakkam SO, CHENGALPATTU, TAMIL NADU, 603103","country":"IN","stateCode":"TN"},{"pincode":"609203","office":"Aruvapadi B.O","district":"MAYILADUTHURAI","state":"TAMIL NADU","lat":11.15,"lon":79.65,"fullAddress":"Aruvapadi B.O, MAYILADUTHURAI, TAMIL NADU, 609203","country":"IN","stateCode":"TN"},{"pincode":"614019","office":"Kulamangalam B.O","district":"THIRUVARUR","state":"TAMIL NADU","lat":10.65,"lon":79.3,"fullAddress":"Kulamangalam B.O, THIRUVARUR, TAMIL NADU, 614019","country":"IN","stateCode":"TN"},{"pincode":"603104","office":"Zamin Paiyanur BO","district":"CHENGALPATTU","state":"TAMIL NADU","lat":12.63917,"lon":80.19266,"fullAddress":"Zamin Paiyanur BO, CHENGALPATTU, TAMIL NADU, 603104","country":"IN","stateCode":"TN"},{"pincode":"636905","office":"Pattukonampatti B.O","district":"DHARMAPURI","state":"TAMIL NADU","lat":11.9135983,"lon":78.3657192,"fullAddress":"Pattukonampatti B.O, DHARMAPURI, TAMIL NADU, 636905","country":"IN","stateCode":"TN"},{"pincode":"636122","office":"Valasaiyur B.O","district":"SALEM","state":"TAMIL NADU","lat":11.7031775,"lon":78.2498195,"fullAddress":"Valasaiyur B.O, SALEM, TAMIL NADU, 636122","country":"IN","stateCode":"TN"},{"pincode":"630107","office":"Pallattur S.O","district":"SIVAGANGA","state":"TAMIL NADU","lat":10.149,"lon":78.8018611,"fullAddress":"Pallattur S.O, SIVAGANGA, TAMIL NADU, 630107","country":"IN","stateCode":"TN"},{"pincode":"625002","office":"Meenambalpuram SO","district":"MADURAI","state":"TAMIL NADU","lat":9.9494,"lon":78.1215,"fullAddress":"Meenambalpuram SO, MADURAI, TAMIL NADU, 625002","country":"IN","stateCode":"TN"},{"pincode":"606104","office":"Mathur B.O","district":"CUDDALORE","state":"TAMIL NADU","lat":11.6,"lon":79.33,"fullAddress":"Mathur B.O, CUDDALORE, TAMIL NADU, 606104","country":"IN","stateCode":"TN"},{"pincode":"624710","office":"Alagapuri BO","district":"DINDIGUL","state":"TAMIL NADU","lat":10.6,"lon":77.98,"fullAddress":"Alagapuri BO, DINDIGUL, TAMIL NADU, 624710","country":"IN","stateCode":"TN"},{"pincode":"606704","office":"Melmudiyanur BO","district":"TIRUVANNAMALAI","state":"TAMIL NADU","lat":12.2681,"lon":78.9413,"fullAddress":"Melmudiyanur BO, TIRUVANNAMALAI, TAMIL NADU, 606704","country":"IN","stateCode":"TN"},{"pincode":"630305","office":"Kallal SO","district":"SIVAGANGA","state":"TAMIL NADU","lat":9.985571,"lon":78.666361,"fullAddress":"Kallal SO, SIVAGANGA, TAMIL NADU, 630305","country":"IN","stateCode":"TN"},{"pincode":"637211","office":"Tiruchengodu South S.O","district":"NAMAKKAL","state":"TAMIL NADU","lat":11.3690278,"lon":77.8891667,"fullAddress":"Tiruchengodu South S.O, NAMAKKAL, TAMIL NADU, 637211","country":"IN","stateCode":"TN"},{"pincode":"621105","office":"Periyakurukkai B.O","district":"TIRUCHIRAPPALLI","state":"TAMIL NADU","lat":11.04,"lon":78.83,"fullAddress":"Periyakurukkai B.O, TIRUCHIRAPPALLI, TAMIL NADU, 621105","country":"IN","stateCode":"TN"},{"pincode":"625020","office":"Gandhi Nagar MA SO","district":"MADURAI","state":"TAMIL NADU","lat":9.7538056,"lon":78.5562222,"fullAddress":"Gandhi Nagar MA SO, MADURAI, TAMIL NADU, 625020","country":"IN","stateCode":"TN"},{"pincode":"631205","office":"S.Agraharam B.O","district":"THIRUVALLUR","state":"TAMIL NADU","lat":13.173311,"lon":79.6167569,"fullAddress":"S.Agraharam B.O, THIRUVALLUR, TAMIL NADU, 631205","country":"IN","stateCode":"TN"},{"pincode":"607301","office":"Puliyur B.O","district":"CUDDALORE","state":"TAMIL NADU","lat":11.64,"lon":79.62,"fullAddress":"Puliyur B.O, CUDDALORE, TAMIL NADU, 607301","country":"IN","stateCode":"TN"},{"pincode":"627813","office":"Poolankudiyiruppu B.O","district":"TENKASI","state":"TAMIL NADU","lat":8.9833,"lon":77.2037,"fullAddress":"Poolankudiyiruppu B.O, TENKASI, TAMIL NADU, 627813","country":"IN","stateCode":"TN"},{"pincode":"603104","office":"Koothavakkam BO","district":"CHENGALPATTU","state":"TAMIL NADU","lat":12.63917,"lon":80.19266,"fullAddress":"Koothavakkam BO, CHENGALPATTU, TAMIL NADU, 603104","country":"IN","stateCode":"TN"},{"pincode":"622302","office":"Karambakudi S.O","district":"PUDUKKOTTAI","state":"TAMIL NADU","lat":10.46,"lon":79.14,"fullAddress":"Karambakudi S.O, PUDUKKOTTAI, TAMIL NADU, 622302","country":"IN","stateCode":"TN"},{"pincode":"635813","office":"Chinnathottalam B.O","district":"VELLORE","state":"TAMIL NADU","lat":12.876411,"lon":78.83619,"fullAddress":"Chinnathottalam B.O, VELLORE, TAMIL NADU, 635813","country":"IN","stateCode":"TN"},{"pincode":"605202","office":"Porur BO","district":"VILLUPURAM","state":"TAMIL NADU","lat":12.067166,"lon":79.395827,"fullAddress":"Porur BO, VILLUPURAM, TAMIL NADU, 605202","country":"IN","stateCode":"TN"},{"pincode":"635110","office":"Mugalur B.O","district":"KRISHNAGIRI","state":"TAMIL NADU","lat":12.6190872,"lon":77.8056342,"fullAddress":"Mugalur B.O, KRISHNAGIRI, TAMIL NADU, 635110","country":"IN","stateCode":"TN"},{"pincode":"635001","office":"Krishnagiri H.O","district":"KRISHNAGIRI","state":"TAMIL NADU","lat":12.5296,"lon":78.2064,"fullAddress":"Krishnagiri H.O, KRISHNAGIRI, TAMIL NADU, 635001","country":"IN","stateCode":"TN"},{"pincode":"635202","office":"Murukkampatti B.O","district":"DHARMAPURI","state":"TAMIL NADU","lat":12.18465,"lon":78.3494,"fullAddress":"Murukkampatti B.O, DHARMAPURI, TAMIL NADU, 635202","country":"IN","stateCode":"TN"},{"pincode":"608501","office":"Manikollai B.O","district":"CUDDALORE","state":"TAMIL NADU","lat":11.52,"lon":79.71,"fullAddress":"Manikollai B.O, CUDDALORE, TAMIL NADU, 608501","country":"IN","stateCode":"TN"},{"pincode":"638051","office":"Ramalingapuram South BO","district":"ERODE","state":"TAMIL NADU","lat":11.1141495,"lon":77.5488885,"fullAddress":"Ramalingapuram South BO, ERODE, TAMIL NADU, 638051","country":"IN","stateCode":"TN"},{"pincode":"625706","office":"Vagaikulam BO","district":"MADURAI","state":"TAMIL NADU","lat":9.902061,"lon":77.909374,"fullAddress":"Vagaikulam BO, MADURAI, TAMIL NADU, 625706","country":"IN","stateCode":"TN"},{"pincode":"606706","office":"S Sorpanandal BO","district":"TIRUVANNAMALAI","state":"TAMIL NADU","lat":12.0092,"lon":78.4334,"fullAddress":"S Sorpanandal BO, TIRUVANNAMALAI, TAMIL NADU, 606706","country":"IN","stateCode":"TN"},{"pincode":"611106","office":"Palaiyur B.O","district":"NAGAPATTINAM","state":"TAMIL NADU","lat":10.74,"lon":79.84,"fullAddress":"Palaiyur B.O, NAGAPATTINAM, TAMIL NADU, 611106","country":"IN","stateCode":"TN"},{"pincode":"639110","office":"Poyyamani B.O","district":"KARUR","state":"TAMIL NADU","lat":10.88,"lon":78.5,"fullAddress":"Poyyamani B.O, KARUR, TAMIL NADU, 639110","country":"IN","stateCode":"TN"},{"pincode":"628809","office":"Seydunganallur S.O","district":"TUTICORIN","state":"TAMIL NADU","lat":8.6620555,"lon":77.82875,"fullAddress":"Seydunganallur S.O, TUTICORIN, TAMIL NADU, 628809","country":"IN","stateCode":"TN"},{"pincode":"623402","office":"Thoonugudi BO","district":"RAMANATHAPURAM","state":"TAMIL NADU","lat":9.79,"lon":78.85,"fullAddress":"Thoonugudi BO, RAMANATHAPURAM, TAMIL NADU, 623402","country":"IN","stateCode":"TN"},{"pincode":"632102","office":"Eriyur Amirthi B.O","district":"TIRUVANNAMALAI","state":"TAMIL NADU","lat":12.6452,"lon":78.9923,"fullAddress":"Eriyur Amirthi B.O, TIRUVANNAMALAI, TAMIL NADU, 632102","country":"IN","stateCode":"TN"},{"pincode":"602021","office":"Kilanur B.O","district":"THIRUVALLUR","state":"TAMIL NADU","lat":13.1885,"lon":79.9396,"fullAddress":"Kilanur B.O, THIRUVALLUR, TAMIL NADU, 602021","country":"IN","stateCode":"TN"},{"pincode":"643237","office":"Sandynallah S.O","district":"THE NILGIRIS","state":"TAMIL NADU","lat":11.34945,"lon":76.802858,"fullAddress":"Sandynallah S.O, THE NILGIRIS, TAMIL NADU, 643237","country":"IN","stateCode":"TN"},{"pincode":"609807","office":"Konulampallam B.O","district":"THANJAVUR","state":"TAMIL NADU","lat":11.15,"lon":79.5,"fullAddress":"Konulampallam B.O, THANJAVUR, TAMIL NADU, 609807","country":"IN","stateCode":"TN"},{"pincode":"624304","office":"Veerasinnnampatti BO","district":"DINDIGUL","state":"TAMIL NADU","lat":10.31,"lon":78.09,"fullAddress":"Veerasinnnampatti BO, DINDIGUL, TAMIL NADU, 624304","country":"IN","stateCode":"TN"},{"pincode":"627760","office":"Athuvazhi S.O","district":"TENKASI","state":"TAMIL NADU","lat":9.2522,"lon":77.3818,"fullAddress":"Athuvazhi S.O, TENKASI, TAMIL NADU, 627760","country":"IN","stateCode":"TN"},{"pincode":"630307","office":"Alangudi B.O","district":"SIVAGANGA","state":"TAMIL NADU","lat":10.0326594,"lon":78.693608,"fullAddress":"Alangudi B.O, SIVAGANGA, TAMIL NADU, 630307","country":"IN","stateCode":"TN"},{"pincode":"637502","office":"Koneripatti B.O","district":"SALEM","state":"TAMIL NADU","lat":11.608402,"lon":77.982705,"fullAddress":"Koneripatti B.O, SALEM, TAMIL NADU, 637502","country":"IN","stateCode":"TN"},{"pincode":"621106","office":"Kolathur B.O","district":"PERAMBALUR","state":"TAMIL NADU","lat":11.11,"lon":78.98,"fullAddress":"Kolathur B.O, PERAMBALUR, TAMIL NADU, 621106","country":"IN","stateCode":"TN"},{"pincode":"629003","office":"Vetturnimadam S.O","district":"KANNIYAKUMARI","state":"TAMIL NADU","lat":8.1898889,"lon":77.4148056,"fullAddress":"Vetturnimadam S.O, KANNIYAKUMARI, TAMIL NADU, 629003","country":"IN","stateCode":"TN"},{"pincode":"637020","office":"Valayapatti S.O (Namakkal)","district":"NAMAKKAL","state":"TAMIL NADU","lat":11.2155833,"lon":78.1702778,"fullAddress":"Valayapatti S.O (Namakkal), NAMAKKAL, TAMIL NADU, 637020","country":"IN","stateCode":"TN"},{"pincode":"636138","office":"Pagadupattu B.O","district":"SALEM","state":"TAMIL NADU","lat":11.7816396,"lon":78.6338093,"fullAddress":"Pagadupattu B.O, SALEM, TAMIL NADU, 636138","country":"IN","stateCode":"TN"},{"pincode":"635851","office":"Kodiyur B.O","district":"Tirupathur","state":"TAMIL NADU","lat":12.568034,"lon":78.583068,"fullAddress":"Kodiyur B.O, Tirupathur, TAMIL NADU, 635851","country":"IN","stateCode":"TN"},{"pincode":"604204","office":"Vadapalai BO","district":"VILLUPURAM","state":"TAMIL NADU","lat":12.29,"lon":79.33,"fullAddress":"Vadapalai BO, VILLUPURAM, TAMIL NADU, 604204","country":"IN","stateCode":"TN"},{"pincode":"612204","office":"Tepperumanallur B.O","district":"THANJAVUR","state":"TAMIL NADU","lat":10.97,"lon":79.43,"fullAddress":"Tepperumanallur B.O, THANJAVUR, TAMIL NADU, 612204","country":"IN","stateCode":"TN"},{"pincode":"622504","office":"Odukkur B.O","district":"PUDUKKOTTAI","state":"TAMIL NADU","lat":10.54,"lon":78.75,"fullAddress":"Odukkur B.O, PUDUKKOTTAI, TAMIL NADU, 622504","country":"IN","stateCode":"TN"},{"pincode":"613301","office":"Thachankurichi B.O","district":"PUDUKKOTTAI","state":"TAMIL NADU","lat":10.65,"lon":78.99,"fullAddress":"Thachankurichi B.O, PUDUKKOTTAI, TAMIL NADU, 613301","country":"IN","stateCode":"TN"},{"pincode":"627855","office":"PUNNIAPURAM B.O","district":"TENKASI","state":"TAMIL NADU","lat":9.1383,"lon":77.3704,"fullAddress":"PUNNIAPURAM B.O, TENKASI, TAMIL NADU, 627855","country":"IN","stateCode":"TN"},{"pincode":"605301","office":"Kanai SO","district":"VILLUPURAM","state":"TAMIL NADU","lat":11.9555,"lon":79.4168333,"fullAddress":"Kanai SO, VILLUPURAM, TAMIL NADU, 605301","country":"IN","stateCode":"TN"},{"pincode":"606702","office":"Melpadur BO","district":"TIRUVANNAMALAI","state":"TAMIL NADU","lat":12.0092,"lon":78.4334,"fullAddress":"Melpadur BO, TIRUVANNAMALAI, TAMIL NADU, 606702","country":"IN","stateCode":"TN"},{"pincode":"630556","office":"Nattarasankottai SO","district":"SIVAGANGA","state":"TAMIL NADU","lat":9.8713371,"lon":78.557009,"fullAddress":"Nattarasankottai SO, SIVAGANGA, TAMIL NADU, 630556","country":"IN","stateCode":"TN"},{"pincode":"635810","office":"Kokkalur B.O","district":"VELLORE","state":"TAMIL NADU","lat":13.002652,"lon":78.743276,"fullAddress":"Kokkalur B.O, VELLORE, TAMIL NADU, 635810","country":"IN","stateCode":"TN"},{"pincode":"621133","office":"Eraiyur S.O (Perambalur)","district":"PERAMBALUR","state":"TAMIL NADU","lat":11.2366111,"lon":78.8618611,"fullAddress":"Eraiyur S.O (Perambalur), PERAMBALUR, TAMIL NADU, 621133","country":"IN","stateCode":"TN"},{"pincode":"635701","office":"Narasingapuram B.O","district":"Tirupathur","state":"TAMIL NADU","lat":12.609566,"lon":78.733606,"fullAddress":"Narasingapuram B.O, Tirupathur, TAMIL NADU, 635701","country":"IN","stateCode":"TN"},{"pincode":"614302","office":"Idaiyiruppu B.O","district":"THANJAVUR","state":"TAMIL NADU","lat":10.86,"lon":79.27,"fullAddress":"Idaiyiruppu B.O, THANJAVUR, TAMIL NADU, 614302","country":"IN","stateCode":"TN"},{"pincode":"636004","office":"Marakkadai S.O","district":"SALEM","state":"TAMIL NADU","lat":11.669695,"lon":78.1395092,"fullAddress":"Marakkadai S.O, SALEM, TAMIL NADU, 636004","country":"IN","stateCode":"TN"},{"pincode":"610101","office":"Suranur B.O","district":"THIRUVARUR","state":"TAMIL NADU","lat":10.82,"lon":79.71,"fullAddress":"Suranur B.O, THIRUVARUR, TAMIL NADU, 610101","country":"IN","stateCode":"TN"},{"pincode":"606907","office":"Saduperipalayam BO","district":"TIRUVANNAMALAI","state":"TAMIL NADU","lat":11.7463,"lon":79.7644,"fullAddress":"Saduperipalayam BO, TIRUVANNAMALAI, TAMIL NADU, 606907","country":"IN","stateCode":"TN"},{"pincode":"627753","office":"Senthattiapuram B.O","district":"TENKASI","state":"TAMIL NADU","lat":9.3308,"lon":77.5627,"fullAddress":"Senthattiapuram B.O, TENKASI, TAMIL NADU, 627753","country":"IN","stateCode":"TN"},{"pincode":"614617","office":"Ammapattinam S.O","district":"PUDUKKOTTAI","state":"TAMIL NADU","lat":10.02,"lon":79.23,"fullAddress":"Ammapattinam S.O, PUDUKKOTTAI, TAMIL NADU, 614617","country":"IN","stateCode":"TN"},{"pincode":"605402","office":"Vengandur BO","district":"VILLUPURAM","state":"TAMIL NADU","lat":11.99,"lon":79.43,"fullAddress":"Vengandur BO, VILLUPURAM, TAMIL NADU, 605402","country":"IN","stateCode":"TN"},{"pincode":"604207","office":"Karuvambakkam BO","district":"VILLUPURAM","state":"TAMIL NADU","lat":12.3,"lon":79.61,"fullAddress":"Karuvambakkam BO, VILLUPURAM, TAMIL NADU, 604207","country":"IN","stateCode":"TN"},{"pincode":"603306","office":"Pakkam BO","district":"CHENGALPATTU","state":"TAMIL NADU","lat":12.4734174,"lon":79.8563087,"fullAddress":"Pakkam BO, CHENGALPATTU, TAMIL NADU, 603306","country":"IN","stateCode":"TN"},{"pincode":"635703","office":"Attiyanur B.O","district":"TIRUVANNAMALAI","state":"TAMIL NADU","lat":12.529164,"lon":78.896695,"fullAddress":"Attiyanur B.O, TIRUVANNAMALAI, TAMIL NADU, 635703","country":"IN","stateCode":"TN"},{"pincode":"612703","office":"Teynampadugai B.O","district":"THANJAVUR","state":"TAMIL NADU","lat":10.91,"lon":79.35,"fullAddress":"Teynampadugai B.O, THANJAVUR, TAMIL NADU, 612703","country":"IN","stateCode":"TN"},{"pincode":"610202","office":"Tirunattiyathankudi B.O","district":"THIRUVARUR","state":"TAMIL NADU","lat":10.7,"lon":79.62,"fullAddress":"Tirunattiyathankudi B.O, THIRUVARUR, TAMIL NADU, 610202","country":"IN","stateCode":"TN"},{"pincode":"605756","office":"Vilandai B.O","district":"KALLAKURICHI","state":"TAMIL NADU","lat":11.97,"lon":79.15,"fullAddress":"Vilandai B.O, KALLAKURICHI, TAMIL NADU, 605756","country":"IN","stateCode":"TN"},{"pincode":"636108","office":"Appammasamudram B.O","district":"SALEM","state":"TAMIL NADU","lat":11.6145292,"lon":78.5885658,"fullAddress":"Appammasamudram B.O, SALEM, TAMIL NADU, 636108","country":"IN","stateCode":"TN"},{"pincode":"626607","office":"Maraikulam BO","district":"VIRUDHUNAGAR","state":"TAMIL NADU","lat":9.63,"lon":78.25,"fullAddress":"Maraikulam BO, VIRUDHUNAGAR, TAMIL NADU, 626607","country":"IN","stateCode":"TN"},{"pincode":"628722","office":"Kurukkuchalai S.O","district":"TUTICORIN","state":"TAMIL NADU","lat":8.9257,"lon":78.0747,"fullAddress":"Kurukkuchalai S.O, TUTICORIN, TAMIL NADU, 628722","country":"IN","stateCode":"TN"},{"pincode":"630610","office":"Kothangulam BO","district":"SIVAGANGA","state":"TAMIL NADU","lat":9.78,"lon":78.31,"fullAddress":"Kothangulam BO, SIVAGANGA, TAMIL NADU, 630610","country":"IN","stateCode":"TN"},{"pincode":"605101","office":"Auroville SO","district":"VILLUPURAM","state":"TAMIL NADU","lat":12.00375,"lon":79.8006944,"fullAddress":"Auroville SO, VILLUPURAM, TAMIL NADU, 605101","country":"IN","stateCode":"TN"},{"pincode":"641607","office":"Mannarai BO","district":"TIRUPPUR","state":"TAMIL NADU","lat":11.118661,"lon":77.374073,"fullAddress":"Mannarai BO, TIRUPPUR, TAMIL NADU, 641607","country":"IN","stateCode":"TN"},{"pincode":"639110","office":"Neidalur South B.O","district":"KARUR","state":"TAMIL NADU","lat":10.81,"lon":78.51,"fullAddress":"Neidalur South B.O, KARUR, TAMIL NADU, 639110","country":"IN","stateCode":"TN"},{"pincode":"629101","office":"Maruthemparai B.O","district":"KANNIYAKUMARI","state":"TAMIL NADU","lat":8.46,"lon":77.25,"fullAddress":"Maruthemparai B.O, KANNIYAKUMARI, TAMIL NADU, 629101","country":"IN","stateCode":"TN"},{"pincode":"600043","office":"Rajajinagar SO Kanchipuram","district":"CHENGALPATTU","state":"TAMIL NADU","lat":12.952,"lon":80.122,"fullAddress":"Rajajinagar SO Kanchipuram, CHENGALPATTU, TAMIL NADU, 600043","country":"IN","stateCode":"TN"},{"pincode":"630710","office":"Thogavur BO","district":"SIVAGANGA","state":"TAMIL NADU","lat":9.42,"lon":78.51,"fullAddress":"Thogavur BO, SIVAGANGA, TAMIL NADU, 630710","country":"IN","stateCode":"TN"},{"pincode":"606802","office":"Porkunam BO","district":"TIRUVANNAMALAI","state":"TAMIL NADU","lat":12.4935,"lon":79.4438,"fullAddress":"Porkunam BO, TIRUVANNAMALAI, TAMIL NADU, 606802","country":"IN","stateCode":"TN"},{"pincode":"603204","office":"Tirukatchur BO","district":"CHENGALPATTU","state":"TAMIL NADU","lat":12.7745497,"lon":79.9961826,"fullAddress":"Tirukatchur BO, CHENGALPATTU, TAMIL NADU, 603204","country":"IN","stateCode":"TN"},{"pincode":"612204","office":"Ayyavadi B.O","district":"THANJAVUR","state":"TAMIL NADU","lat":10.96,"lon":79.44,"fullAddress":"Ayyavadi B.O, THANJAVUR, TAMIL NADU, 612204","country":"IN","stateCode":"TN"},{"pincode":"614904","office":"Kasanadupudur B.O","district":"THANJAVUR","state":"TAMIL NADU","lat":10.71,"lon":79.19,"fullAddress":"Kasanadupudur B.O, THANJAVUR, TAMIL NADU, 614904","country":"IN","stateCode":"TN"},{"pincode":"612804","office":"Adichamangalam B.O","district":"THIRUVARUR","state":"TAMIL NADU","lat":10.89,"lon":79.38,"fullAddress":"Adichamangalam B.O, THIRUVARUR, TAMIL NADU, 612804","country":"IN","stateCode":"TN"},{"pincode":"612204","office":"Srinivasanallur BO","district":"THANJAVUR","state":"TAMIL NADU","lat":10.98,"lon":79.43,"fullAddress":"Srinivasanallur BO, THANJAVUR, TAMIL NADU, 612204","country":"IN","stateCode":"TN"},{"pincode":"635804","office":"Thollapalli B.O","district":"VELLORE","state":"TAMIL NADU","lat":12.833026,"lon":78.892897,"fullAddress":"Thollapalli B.O, VELLORE, TAMIL NADU, 635804","country":"IN","stateCode":"TN"},{"pincode":"638001","office":"Erode Market SO","district":"ERODE","state":"TAMIL NADU","lat":11.344727,"lon":77.731182,"fullAddress":"Erode Market SO, ERODE, TAMIL NADU, 638001","country":"IN","stateCode":"TN"},{"pincode":"643213","office":"Kilinjada B.O","district":"THE NILGIRIS","state":"TAMIL NADU","lat":11.314754,"lon":76.737259,"fullAddress":"Kilinjada B.O, THE NILGIRIS, TAMIL NADU, 643213","country":"IN","stateCode":"TN"},{"pincode":"626204","office":"Appayanaickenpatti BO","district":"VIRUDHUNAGAR","state":"TAMIL NADU","lat":9.42,"lon":77.97,"fullAddress":"Appayanaickenpatti BO, VIRUDHUNAGAR, TAMIL NADU, 626204","country":"IN","stateCode":"TN"},{"pincode":"629501","office":"North Soorankudy B.O","district":"KANNIYAKUMARI","state":"TAMIL NADU","lat":8.14,"lon":77.42,"fullAddress":"North Soorankudy B.O, KANNIYAKUMARI, TAMIL NADU, 629501","country":"IN","stateCode":"TN"},{"pincode":"627133","office":"Mahendragiri SO","district":"TIRUNELVELI","state":"TAMIL NADU","lat":8.2822222,"lon":77.5679444,"fullAddress":"Mahendragiri SO, TIRUNELVELI, TAMIL NADU, 627133","country":"IN","stateCode":"TN"},{"pincode":"635810","office":"Erikutti B.O","district":"VELLORE","state":"TAMIL NADU","lat":12.928494,"lon":78.731603,"fullAddress":"Erikutti B.O, VELLORE, TAMIL NADU, 635810","country":"IN","stateCode":"TN"},{"pincode":"614625","office":"Okkanad Kilaiyur B.O","district":"THANJAVUR","state":"TAMIL NADU","lat":10.63,"lon":79.33,"fullAddress":"Okkanad Kilaiyur B.O, THANJAVUR, TAMIL NADU, 614625","country":"IN","stateCode":"TN"},{"pincode":"628401","office":"Otapidaram S.O","district":"TUTICORIN","state":"TAMIL NADU","lat":8.9147778,"lon":78.0226389,"fullAddress":"Otapidaram S.O, TUTICORIN, TAMIL NADU, 628401","country":"IN","stateCode":"TN"},{"pincode":"636303","office":"Chinnathanda B.O","district":"SALEM","state":"TAMIL NADU","lat":11.854308,"lon":77.670747,"fullAddress":"Chinnathanda B.O, SALEM, TAMIL NADU, 636303","country":"IN","stateCode":"TN"},{"pincode":"630611","office":"Pulvoikarai BO","district":"VIRUDHUNAGAR","state":"TAMIL NADU","lat":9.71,"lon":78.22,"fullAddress":"Pulvoikarai BO, VIRUDHUNAGAR, TAMIL NADU, 630611","country":"IN","stateCode":"TN"},{"pincode":"636503","office":"Manathal Nallagoundampatti B.O","district":"SALEM","state":"TAMIL NADU","lat":11.769586,"lon":77.97032,"fullAddress":"Manathal Nallagoundampatti B.O, SALEM, TAMIL NADU, 636503","country":"IN","stateCode":"TN"},{"pincode":"625527","office":"Sembarani B.O","district":"MADURAI","state":"TAMIL NADU","lat":9.84,"lon":77.84,"fullAddress":"Sembarani B.O, MADURAI, TAMIL NADU, 625527","country":"IN","stateCode":"TN"},{"pincode":"621113","office":"Varagupadi B.O","district":"PERAMBALUR","state":"TAMIL NADU","lat":11.16,"lon":78.9,"fullAddress":"Varagupadi B.O, PERAMBALUR, TAMIL NADU, 621113","country":"IN","stateCode":"TN"},{"pincode":"628210","office":"Kalvilai B.O","district":"TUTICORIN","state":"TAMIL NADU","lat":8.487201,"lon":77.97208,"fullAddress":"Kalvilai B.O, TUTICORIN, TAMIL NADU, 628210","country":"IN","stateCode":"TN"},{"pincode":"604407","office":"Arugavur BO","district":"TIRUVANNAMALAI","state":"TAMIL NADU","lat":12.6939,"lon":79.5237,"fullAddress":"Arugavur BO, TIRUVANNAMALAI, TAMIL NADU, 604407","country":"IN","stateCode":"TN"},{"pincode":"637102","office":"Konasamudram B.O","district":"SALEM","state":"TAMIL NADU","lat":11.6216093,"lon":77.8998845,"fullAddress":"Konasamudram B.O, SALEM, TAMIL NADU, 637102","country":"IN","stateCode":"TN"},{"pincode":"637209","office":"Komarapalayam B.O","district":"NAMAKKAL","state":"TAMIL NADU","lat":11.317006,"lon":77.875657,"fullAddress":"Komarapalayam B.O, NAMAKKAL, TAMIL NADU, 637209","country":"IN","stateCode":"TN"},{"pincode":"635303","office":"Maniyambadi B.O","district":"DHARMAPURI","state":"TAMIL NADU","lat":12.10915,"lon":78.2945,"fullAddress":"Maniyambadi B.O, DHARMAPURI, TAMIL NADU, 635303","country":"IN","stateCode":"TN"},{"pincode":"635120","office":"Kammampalli B.O","district":"KRISHNAGIRI","state":"TAMIL NADU","lat":12.5186223,"lon":78.2137255,"fullAddress":"Kammampalli B.O, KRISHNAGIRI, TAMIL NADU, 635120","country":"IN","stateCode":"TN"},{"pincode":"638454","office":"Kasipalayam SO Erode","district":"ERODE","state":"TAMIL NADU","lat":11.459614,"lon":77.331702,"fullAddress":"Kasipalayam SO Erode, ERODE, TAMIL NADU, 638454","country":"IN","stateCode":"TN"},{"pincode":"624208","office":"Nilakottai HO","district":"DINDIGUL","state":"TAMIL NADU","lat":10.164852,"lon":77.853401,"fullAddress":"Nilakottai HO, DINDIGUL, TAMIL NADU, 624208","country":"IN","stateCode":"TN"},{"pincode":"623523","office":"Periyapattinam SO","district":"RAMANATHAPURAM","state":"TAMIL NADU","lat":9.267808,"lon":78.905285,"fullAddress":"Periyapattinam SO, RAMANATHAPURAM, TAMIL NADU, 623523","country":"IN","stateCode":"TN"},{"pincode":"627120","office":"Anuvijay Township SO","district":"TIRUNELVELI","state":"TAMIL NADU","lat":8.1643333,"lon":77.6289722,"fullAddress":"Anuvijay Township SO, TIRUNELVELI, TAMIL NADU, 627120","country":"IN","stateCode":"TN"},{"pincode":"604207","office":"Dadapuram BO","district":"VILLUPURAM","state":"TAMIL NADU","lat":12.35,"lon":79.61,"fullAddress":"Dadapuram BO, VILLUPURAM, TAMIL NADU, 604207","country":"IN","stateCode":"TN"},{"pincode":"608704","office":"Vadathalaikulam B.O","district":"CUDDALORE","state":"TAMIL NADU","lat":11.48,"lon":79.59,"fullAddress":"Vadathalaikulam B.O, CUDDALORE, TAMIL NADU, 608704","country":"IN","stateCode":"TN"},{"pincode":"621011","office":"Puthur B.O","district":"TIRUCHIRAPPALLI","state":"TAMIL NADU","lat":11.29,"lon":78.58,"fullAddress":"Puthur B.O, TIRUCHIRAPPALLI, TAMIL NADU, 621011","country":"IN","stateCode":"TN"},{"pincode":"632011","office":"T.B. Sanatorium S.O","district":"VELLORE","state":"TAMIL NADU","lat":12.9132222,"lon":79.7591389,"fullAddress":"T.B. Sanatorium S.O, VELLORE, TAMIL NADU, 632011","country":"IN","stateCode":"TN"},{"pincode":"638056","office":"Pallagoundenpalayam BO","district":"TIRUPPUR","state":"TAMIL NADU","lat":11.227111,"lon":77.464817,"fullAddress":"Pallagoundenpalayam BO, TIRUPPUR, TAMIL NADU, 638056","country":"IN","stateCode":"TN"},{"pincode":"623315","office":"Vellayapuram SO","district":"RAMANATHAPURAM","state":"TAMIL NADU","lat":9.833339,"lon":79.033389,"fullAddress":"Vellayapuram SO, RAMANATHAPURAM, TAMIL NADU, 623315","country":"IN","stateCode":"TN"}]